{
"type": "FeatureCollection",
"crs": { "type": "name", "properties": { "name": "urn:ogc:def:crs:OGC:1.3:CRS84" } },
"features": [
{ "type": "Feature", "properties": { "ADMIN": "Zimbabwe", "NAME_EN": "Zimbabwe", "HPI_HPI Ra": 99, "HPI_Region": "Sub Saharan Africa", "HPI_Averag": 53.7, "HPI_Aver_1": 5.0, "HPI_Happy": 16.4, "HPI_Footpr": 1.4, "HPI_Inequa": "37 %", "HPI_Ineq_1": 36.9, "HPI_Ineq_2": 4.6, "HPI_Happ_1": 22.1, "HPI_GDP\/ca": "US$\t851", "HPI_Popula": "\t14 565 482", "HPI_GINI i": "Data unavailable" }, "geometry": { "type": "Point", "coordinates": [ 29.851441201921897, -19.004204188216782 ] } },
{ "type": "Feature", "properties": { "ADMIN": "Zambia", "NAME_EN": "Zambia", "HPI_HPI Ra": 77, "HPI_Region": "Sub Saharan Africa", "HPI_Averag": 58.4, "HPI_Aver_1": 5.0, "HPI_Happy": 16.7, "HPI_Footpr": 1.0, "HPI_Inequa": "41 %", "HPI_Ineq_1": 38.7, "HPI_Ineq_2": 4.5, "HPI_Happ_1": 25.2, "HPI_GDP\/ca": "US$\t1 687", "HPI_Popula": "\t14 786 581", "HPI_GINI i": "Data unavailable" }, "geometry": { "type": "Point", "coordinates": [ 27.774759463693215, -13.458241518646854 ] } },
{ "type": "Feature", "properties": { "ADMIN": "Yemen", "NAME_EN": "Yemen", "HPI_HPI Ra": 94, "HPI_Region": "Middle East and North Africa", "HPI_Averag": 63.3, "HPI_Aver_1": 4.1, "HPI_Happy": 15.2, "HPI_Footpr": 1.0, "HPI_Inequa": "39 %", "HPI_Ineq_1": 44.7, "HPI_Ineq_2": 3.6, "HPI_Happ_1": 22.8, "HPI_GDP\/ca": "US$\t1 289", "HPI_Popula": "\t24 882 792", "HPI_GINI i": "Data unavailable" }, "geometry": { "type": "Point", "coordinates": [ 47.586761887732678, 15.909280050454131 ] } },
{ "type": "Feature", "properties": { "ADMIN": "Vietnam", "NAME_EN": "Vietnam", "HPI_HPI Ra": 5, "HPI_Region": "Asia Pacific", "HPI_Averag": 75.5, "HPI_Aver_1": 5.5, "HPI_Happy": 32.8, "HPI_Footpr": 1.7, "HPI_Inequa": "19 %", "HPI_Ineq_1": 64.8, "HPI_Ineq_2": 5.2, "HPI_Happ_1": 40.3, "HPI_GDP\/ca": "US$\t1 755", "HPI_Popula": "\t88 809 200", "HPI_GINI i": "38,7" }, "geometry": { "type": "Point", "coordinates": [ 106.299146977649485, 16.646016701943406 ] } },
{ "type": "Feature", "properties": { "ADMIN": "Venezuela", "NAME_EN": "Venezuela", "HPI_HPI Ra": 29, "HPI_Region": "Americas", "HPI_Averag": 73.9, "HPI_Aver_1": 7.1, "HPI_Happy": 41.5, "HPI_Footpr": 3.6, "HPI_Inequa": "19 %", "HPI_Ineq_1": 65.5, "HPI_Ineq_2": 6.5, "HPI_Happ_1": 33.6, "HPI_GDP\/ca": "US$\t12 772", "HPI_Popula": "\t29 854 238", "HPI_GINI i": "Data unavailable" }, "geometry": { "type": "Point", "coordinates": [ -66.181841231145455, 7.12422421273278 ] } },
{ "type": "Feature", "properties": { "ADMIN": "Vatican", "NAME_EN": "Vatican City", "HPI_HPI Ra": null, "HPI_Region": null, "HPI_Averag": null, "HPI_Aver_1": null, "HPI_Happy": null, "HPI_Footpr": null, "HPI_Inequa": null, "HPI_Ineq_1": null, "HPI_Ineq_2": null, "HPI_Happ_1": null, "HPI_GDP\/ca": null, "HPI_Popula": null, "HPI_GINI i": null }, "geometry": { "type": "Point", "coordinates": [ 12.433871766103506, 41.901749852920148 ] } },
{ "type": "Feature", "properties": { "ADMIN": "Vanuatu", "NAME_EN": "Vanuatu", "HPI_HPI Ra": 4, "HPI_Region": "Asia Pacific", "HPI_Averag": 71.3, "HPI_Aver_1": 6.5, "HPI_Happy": 34.9, "HPI_Footpr": 1.9, "HPI_Inequa": "22 %", "HPI_Ineq_1": 60.3, "HPI_Ineq_2": 5.9, "HPI_Happ_1": 40.6, "HPI_GDP\/ca": "US$\t3 158", "HPI_Popula": "\t247 498", "HPI_GINI i": "Data unavailable" }, "geometry": { "type": "Point", "coordinates": [ 167.686446357050897, -16.226409088434302 ] } },
{ "type": "Feature", "properties": { "ADMIN": "Uzbekistan", "NAME_EN": "Uzbekistan", "HPI_HPI Ra": 51, "HPI_Region": "Post-communist", "HPI_Averag": 68.2, "HPI_Aver_1": 6.0, "HPI_Happy": 27.9, "HPI_Footpr": 2.3, "HPI_Inequa": "30 %", "HPI_Ineq_1": 51.6, "HPI_Ineq_2": 5.6, "HPI_Happ_1": 29.1, "HPI_GDP\/ca": "US$\t1 719", "HPI_Popula": "\t29 774 500", "HPI_GINI i": "Data unavailable" }, "geometry": { "type": "Point", "coordinates": [ 63.140015280471211, 41.755542252652326 ] } },
{ "type": "Feature", "properties": { "ADMIN": "Uruguay", "NAME_EN": "Uruguay", "HPI_HPI Ra": 14, "HPI_Region": "Americas", "HPI_Averag": 76.9, "HPI_Aver_1": 6.4, "HPI_Happy": 39.4, "HPI_Footpr": 2.9, "HPI_Inequa": "18 %", "HPI_Ineq_1": 69.6, "HPI_Ineq_2": 5.8, "HPI_Happ_1": 36.1, "HPI_GDP\/ca": "US$\t15 128", "HPI_Popula": "\t3 396 753", "HPI_GINI i": "41,3" }, "geometry": { "type": "Point", "coordinates": [ -56.018070531450697, -32.799515344375237 ] } },
{ "type": "Feature", "properties": { "ADMIN": "Federated States of Micronesia", "NAME_EN": "Federated States of Micronesia", "HPI_HPI Ra": null, "HPI_Region": null, "HPI_Averag": null, "HPI_Aver_1": null, "HPI_Happy": null, "HPI_Footpr": null, "HPI_Inequa": null, "HPI_Ineq_1": null, "HPI_Ineq_2": null, "HPI_Happ_1": null, "HPI_GDP\/ca": null, "HPI_Popula": null, "HPI_GINI i": null }, "geometry": { "type": "Point", "coordinates": [ 153.239437922028458, 7.452468136589799 ] } },
{ "type": "Feature", "properties": { "ADMIN": "Marshall Islands", "NAME_EN": "Marshall Islands", "HPI_HPI Ra": null, "HPI_Region": null, "HPI_Averag": null, "HPI_Aver_1": null, "HPI_Happy": null, "HPI_Footpr": null, "HPI_Inequa": null, "HPI_Ineq_1": null, "HPI_Ineq_2": null, "HPI_Happ_1": null, "HPI_GDP\/ca": null, "HPI_Popula": null, "HPI_GINI i": null }, "geometry": { "type": "Point", "coordinates": [ 170.339761223585811, 7.003763583152616 ] } },
{ "type": "Feature", "properties": { "ADMIN": "Northern Mariana Islands", "NAME_EN": "Northern Mariana Islands", "HPI_HPI Ra": null, "HPI_Region": null, "HPI_Averag": null, "HPI_Aver_1": null, "HPI_Happy": null, "HPI_Footpr": null, "HPI_Inequa": null, "HPI_Ineq_1": null, "HPI_Ineq_2": null, "HPI_Happ_1": null, "HPI_GDP\/ca": null, "HPI_Popula": null, "HPI_GINI i": null }, "geometry": { "type": "Point", "coordinates": [ 145.619696512968488, 15.829275627693621 ] } },
{ "type": "Feature", "properties": { "ADMIN": "United States Virgin Islands", "NAME_EN": "United States Virgin Islands", "HPI_HPI Ra": null, "HPI_Region": null, "HPI_Averag": null, "HPI_Aver_1": null, "HPI_Happy": null, "HPI_Footpr": null, "HPI_Inequa": null, "HPI_Ineq_1": null, "HPI_Ineq_2": null, "HPI_Happ_1": null, "HPI_GDP\/ca": null, "HPI_Popula": null, "HPI_GINI i": null }, "geometry": { "type": "Point", "coordinates": [ -64.80301537523917, 17.955006239372292 ] } },
{ "type": "Feature", "properties": { "ADMIN": "Guam", "NAME_EN": "Guam", "HPI_HPI Ra": null, "HPI_Region": null, "HPI_Averag": null, "HPI_Aver_1": null, "HPI_Happy": null, "HPI_Footpr": null, "HPI_Inequa": null, "HPI_Ineq_1": null, "HPI_Ineq_2": null, "HPI_Happ_1": null, "HPI_GDP\/ca": null, "HPI_Popula": null, "HPI_GINI i": null }, "geometry": { "type": "Point", "coordinates": [ 144.767910219555574, 13.441656257034156 ] } },
{ "type": "Feature", "properties": { "ADMIN": "American Samoa", "NAME_EN": "American Samoa", "HPI_HPI Ra": null, "HPI_Region": null, "HPI_Averag": null, "HPI_Aver_1": null, "HPI_Happy": null, "HPI_Footpr": null, "HPI_Inequa": null, "HPI_Ineq_1": null, "HPI_Ineq_2": null, "HPI_Happ_1": null, "HPI_GDP\/ca": null, "HPI_Popula": null, "HPI_GINI i": null }, "geometry": { "type": "Point", "coordinates": [ -170.71802574559652, -14.304459970815351 ] } },
{ "type": "Feature", "properties": { "ADMIN": "Puerto Rico", "NAME_EN": "Puerto Rico", "HPI_HPI Ra": null, "HPI_Region": null, "HPI_Averag": null, "HPI_Aver_1": null, "HPI_Happy": null, "HPI_Footpr": null, "HPI_Inequa": null, "HPI_Ineq_1": null, "HPI_Ineq_2": null, "HPI_Happ_1": null, "HPI_GDP\/ca": null, "HPI_Popula": null, "HPI_GINI i": null }, "geometry": { "type": "Point", "coordinates": [ -66.473076043502147, 18.228130546109508 ] } },
{ "type": "Feature", "properties": { "ADMIN": "United States of America", "NAME_EN": "United States of America", "HPI_HPI Ra": 108, "HPI_Region": "Americas", "HPI_Averag": 78.8, "HPI_Aver_1": 7.0, "HPI_Happy": 46.8, "HPI_Footpr": 8.2, "HPI_Inequa": "13 %", "HPI_Ineq_1": 74.0, "HPI_Ineq_2": 6.5, "HPI_Happ_1": 20.7, "HPI_GDP\/ca": "US$\t51 457", "HPI_Popula": "\t314 112 078", "HPI_GINI i": "Data unavailable" }, "geometry": { "type": "Point", "coordinates": [ -101.386616713302558, 39.772850143209915 ] } },
{ "type": "Feature", "properties": { "ADMIN": "South Georgia and the Islands", "NAME_EN": "South Georgia and the South Sandwich Islands", "HPI_HPI Ra": null, "HPI_Region": null, "HPI_Averag": null, "HPI_Aver_1": null, "HPI_Happy": null, "HPI_Footpr": null, "HPI_Inequa": null, "HPI_Ineq_1": null, "HPI_Ineq_2": null, "HPI_Happ_1": null, "HPI_GDP\/ca": null, "HPI_Popula": null, "HPI_GINI i": null }, "geometry": { "type": "Point", "coordinates": [ -36.433183882259769, -54.464882480150671 ] } },
{ "type": "Feature", "properties": { "ADMIN": "British Indian Ocean Territory", "NAME_EN": "British Indian Ocean Territory", "HPI_HPI Ra": null, "HPI_Region": null, "HPI_Averag": null, "HPI_Aver_1": null, "HPI_Happy": null, "HPI_Footpr": null, "HPI_Inequa": null, "HPI_Ineq_1": null, "HPI_Ineq_2": null, "HPI_Happ_1": null, "HPI_GDP\/ca": null, "HPI_Popula": null, "HPI_GINI i": null }, "geometry": { "type": "Point", "coordinates": [ 72.445412285379106, -7.330597507492158 ] } },
{ "type": "Feature", "properties": { "ADMIN": "Saint Helena", "NAME_EN": "Saint Helena", "HPI_HPI Ra": null, "HPI_Region": null, "HPI_Averag": null, "HPI_Aver_1": null, "HPI_Happy": null, "HPI_Footpr": null, "HPI_Inequa": null, "HPI_Ineq_1": null, "HPI_Ineq_2": null, "HPI_Happ_1": null, "HPI_GDP\/ca": null, "HPI_Popula": null, "HPI_GINI i": null }, "geometry": { "type": "Point", "coordinates": [ -9.547794158698652, -12.403559507755284 ] } },
{ "type": "Feature", "properties": { "ADMIN": "Pitcairn Islands", "NAME_EN": "Pitcairn Islands", "HPI_HPI Ra": null, "HPI_Region": null, "HPI_Averag": null, "HPI_Aver_1": null, "HPI_Happy": null, "HPI_Footpr": null, "HPI_Inequa": null, "HPI_Ineq_1": null, "HPI_Ineq_2": null, "HPI_Happ_1": null, "HPI_GDP\/ca": null, "HPI_Popula": null, "HPI_GINI i": null }, "geometry": { "type": "Point", "coordinates": [ -128.317042024212782, -24.365005346037378 ] } },
{ "type": "Feature", "properties": { "ADMIN": "Anguilla", "NAME_EN": "Anguilla", "HPI_HPI Ra": null, "HPI_Region": null, "HPI_Averag": null, "HPI_Aver_1": null, "HPI_Happy": null, "HPI_Footpr": null, "HPI_Inequa": null, "HPI_Ineq_1": null, "HPI_Ineq_2": null, "HPI_Happ_1": null, "HPI_GDP\/ca": null, "HPI_Popula": null, "HPI_GINI i": null }, "geometry": { "type": "Point", "coordinates": [ -63.064989265356871, 18.223959502282636 ] } },
{ "type": "Feature", "properties": { "ADMIN": "Falkland Islands", "NAME_EN": "Falkland Islands", "HPI_HPI Ra": null, "HPI_Region": null, "HPI_Averag": null, "HPI_Aver_1": null, "HPI_Happy": null, "HPI_Footpr": null, "HPI_Inequa": null, "HPI_Ineq_1": null, "HPI_Ineq_2": null, "HPI_Happ_1": null, "HPI_GDP\/ca": null, "HPI_Popula": null, "HPI_GINI i": null }, "geometry": { "type": "Point", "coordinates": [ -59.35238955995257, -51.74483954408808 ] } },
{ "type": "Feature", "properties": { "ADMIN": "Cayman Islands", "NAME_EN": "Cayman Islands", "HPI_HPI Ra": null, "HPI_Region": null, "HPI_Averag": null, "HPI_Aver_1": null, "HPI_Happy": null, "HPI_Footpr": null, "HPI_Inequa": null, "HPI_Ineq_1": null, "HPI_Ineq_2": null, "HPI_Happ_1": null, "HPI_GDP\/ca": null, "HPI_Popula": null, "HPI_GINI i": null }, "geometry": { "type": "Point", "coordinates": [ -80.912133214704753, 19.428964972234954 ] } },
{ "type": "Feature", "properties": { "ADMIN": "Bermuda", "NAME_EN": "Bermuda", "HPI_HPI Ra": null, "HPI_Region": null, "HPI_Averag": null, "HPI_Aver_1": null, "HPI_Happy": null, "HPI_Footpr": null, "HPI_Inequa": null, "HPI_Ineq_1": null, "HPI_Ineq_2": null, "HPI_Happ_1": null, "HPI_GDP\/ca": null, "HPI_Popula": null, "HPI_GINI i": null }, "geometry": { "type": "Point", "coordinates": [ -64.754558898164177, 32.313678020833891 ] } },
{ "type": "Feature", "properties": { "ADMIN": "British Virgin Islands", "NAME_EN": "British Virgin Islands", "HPI_HPI Ra": null, "HPI_Region": null, "HPI_Averag": null, "HPI_Aver_1": null, "HPI_Happy": null, "HPI_Footpr": null, "HPI_Inequa": null, "HPI_Ineq_1": null, "HPI_Ineq_2": null, "HPI_Happ_1": null, "HPI_GDP\/ca": null, "HPI_Popula": null, "HPI_GINI i": null }, "geometry": { "type": "Point", "coordinates": [ -64.471469922047106, 18.525857545070608 ] } },
{ "type": "Feature", "properties": { "ADMIN": "Turks and Caicos Islands", "NAME_EN": "Turks and Caicos Islands", "HPI_HPI Ra": null, "HPI_Region": null, "HPI_Averag": null, "HPI_Aver_1": null, "HPI_Happy": null, "HPI_Footpr": null, "HPI_Inequa": null, "HPI_Ineq_1": null, "HPI_Ineq_2": null, "HPI_Happ_1": null, "HPI_GDP\/ca": null, "HPI_Popula": null, "HPI_GINI i": null }, "geometry": { "type": "Point", "coordinates": [ -71.973878814427479, 21.830475717099503 ] } },
{ "type": "Feature", "properties": { "ADMIN": "Montserrat", "NAME_EN": "Montserrat", "HPI_HPI Ra": null, "HPI_Region": null, "HPI_Averag": null, "HPI_Aver_1": null, "HPI_Happy": null, "HPI_Footpr": null, "HPI_Inequa": null, "HPI_Ineq_1": null, "HPI_Ineq_2": null, "HPI_Happ_1": null, "HPI_GDP\/ca": null, "HPI_Popula": null, "HPI_GINI i": null }, "geometry": { "type": "Point", "coordinates": [ -62.185185456249819, 16.739414055259036 ] } },
{ "type": "Feature", "properties": { "ADMIN": "Jersey", "NAME_EN": "Jersey", "HPI_HPI Ra": null, "HPI_Region": null, "HPI_Averag": null, "HPI_Aver_1": null, "HPI_Happy": null, "HPI_Footpr": null, "HPI_Inequa": null, "HPI_Ineq_1": null, "HPI_Ineq_2": null, "HPI_Happ_1": null, "HPI_GDP\/ca": null, "HPI_Popula": null, "HPI_GINI i": null }, "geometry": { "type": "Point", "coordinates": [ -2.126899379444997, 49.218373766795779 ] } },
{ "type": "Feature", "properties": { "ADMIN": "Guernsey", "NAME_EN": "Guernsey", "HPI_HPI Ra": null, "HPI_Region": null, "HPI_Averag": null, "HPI_Aver_1": null, "HPI_Happy": null, "HPI_Footpr": null, "HPI_Inequa": null, "HPI_Ineq_1": null, "HPI_Ineq_2": null, "HPI_Happ_1": null, "HPI_GDP\/ca": null, "HPI_Popula": null, "HPI_GINI i": null }, "geometry": { "type": "Point", "coordinates": [ -2.572390635550066, 49.468097612772205 ] } },
{ "type": "Feature", "properties": { "ADMIN": "Isle of Man", "NAME_EN": "Isle of Man", "HPI_HPI Ra": null, "HPI_Region": null, "HPI_Averag": null, "HPI_Aver_1": null, "HPI_Happy": null, "HPI_Footpr": null, "HPI_Inequa": null, "HPI_Ineq_1": null, "HPI_Ineq_2": null, "HPI_Happ_1": null, "HPI_GDP\/ca": null, "HPI_Popula": null, "HPI_GINI i": null }, "geometry": { "type": "Point", "coordinates": [ -4.538739523255257, 54.224189107714302 ] } },
{ "type": "Feature", "properties": { "ADMIN": "United Kingdom", "NAME_EN": "United Kingdom", "HPI_HPI Ra": 34, "HPI_Region": "Europe", "HPI_Averag": 80.4, "HPI_Aver_1": 6.9, "HPI_Happy": 49.1, "HPI_Footpr": 4.9, "HPI_Inequa": "9 %", "HPI_Ineq_1": 76.8, "HPI_Ineq_2": 6.6, "HPI_Happ_1": 31.9, "HPI_GDP\/ca": "US$\t41 295", "HPI_Popula": "\t63 700 300", "HPI_GINI i": "32,6" }, "geometry": { "type": "Point", "coordinates": [ -2.865631640838156, 54.123871557729252 ] } },
{ "type": "Feature", "properties": { "ADMIN": "United Arab Emirates", "NAME_EN": "United Arab Emirates", "HPI_HPI Ra": null, "HPI_Region": null, "HPI_Averag": null, "HPI_Aver_1": null, "HPI_Happy": null, "HPI_Footpr": null, "HPI_Inequa": null, "HPI_Ineq_1": null, "HPI_Ineq_2": null, "HPI_Happ_1": null, "HPI_GDP\/ca": null, "HPI_Popula": null, "HPI_GINI i": null }, "geometry": { "type": "Point", "coordinates": [ 54.300167101563808, 23.905281878496478 ] } },
{ "type": "Feature", "properties": { "ADMIN": "Ukraine", "NAME_EN": "Ukraine", "HPI_HPI Ra": 70, "HPI_Region": "Post-communist", "HPI_Averag": 70.3, "HPI_Aver_1": 5.0, "HPI_Happy": 28.3, "HPI_Footpr": 2.8, "HPI_Inequa": "17 %", "HPI_Ineq_1": 64.2, "HPI_Ineq_2": 4.6, "HPI_Happ_1": 26.4, "HPI_GDP\/ca": "US$\t3 855", "HPI_Popula": "\t45 593 300", "HPI_GINI i": "24,7" }, "geometry": { "type": "Point", "coordinates": [ 31.252911064592062, 49.158673120411621 ] } },
{ "type": "Feature", "properties": { "ADMIN": "Uganda", "NAME_EN": "Uganda", "HPI_HPI Ra": 112, "HPI_Region": "Sub Saharan Africa", "HPI_Averag": 57.1, "HPI_Aver_1": 4.3, "HPI_Happy": 13.8, "HPI_Footpr": 1.2, "HPI_Inequa": "41 %", "HPI_Ineq_1": 36.8, "HPI_Ineq_2": 3.9, "HPI_Happ_1": 19.4, "HPI_GDP\/ca": "US$\t656", "HPI_Popula": "\t35 400 620", "HPI_GINI i": "42,4" }, "geometry": { "type": "Point", "coordinates": [ 32.36907971370352, 1.274692987308714 ] } },
{ "type": "Feature", "properties": { "ADMIN": "Turkmenistan", "NAME_EN": "Turkmenistan", "HPI_HPI Ra": 134, "HPI_Region": "Post-communist", "HPI_Averag": 65.3, "HPI_Aver_1": 5.5, "HPI_Happy": 24.0, "HPI_Footpr": 5.5, "HPI_Inequa": "31 %", "HPI_Ineq_1": 48.3, "HPI_Ineq_2": 5.1, "HPI_Happ_1": 14.6, "HPI_GDP\/ca": "US$\t6 798", "HPI_Popula": "\t5 172 941", "HPI_GINI i": "Data unavailable" }, "geometry": { "type": "Point", "coordinates": [ 59.371000206145354, 39.115541374194194 ] } },
{ "type": "Feature", "properties": { "ADMIN": "Turkey", "NAME_EN": "Turkey", "HPI_HPI Ra": 68, "HPI_Region": "Middle East and North Africa", "HPI_Averag": 74.7, "HPI_Aver_1": 5.3, "HPI_Happy": 31.2, "HPI_Footpr": 3.3, "HPI_Inequa": "19 %", "HPI_Ineq_1": 66.2, "HPI_Ineq_2": 4.9, "HPI_Happ_1": 26.4, "HPI_GDP\/ca": "US$\t10 646", "HPI_Popula": "\t74 099 255", "HPI_GINI i": "40,2" }, "geometry": { "type": "Point", "coordinates": [ 35.16895346488068, 39.061602901255597 ] } },
{ "type": "Feature", "properties": { "ADMIN": "Tunisia", "NAME_EN": "Tunisia", "HPI_HPI Ra": 71, "HPI_Region": "Middle East and North Africa", "HPI_Averag": 74.6, "HPI_Aver_1": 4.5, "HPI_Happy": 25.2, "HPI_Footpr": 2.3, "HPI_Inequa": "22 %", "HPI_Ineq_1": 65.5, "HPI_Ineq_2": 4.0, "HPI_Happ_1": 26.2, "HPI_GDP\/ca": "US$\t4 188", "HPI_Popula": "\t10 777 500", "HPI_GINI i": "Data unavailable" }, "geometry": { "type": "Point", "coordinates": [ 9.552883589326425, 34.119562464907879 ] } },
{ "type": "Feature", "properties": { "ADMIN": "Trinidad and Tobago", "NAME_EN": "Trinidad and Tobago", "HPI_HPI Ra": 130, "HPI_Region": "Americas", "HPI_Averag": 70.1, "HPI_Aver_1": 6.4, "HPI_Happy": 34.4, "HPI_Footpr": 7.9, "HPI_Inequa": "21 %", "HPI_Ineq_1": 58.4, "HPI_Ineq_2": 6.0, "HPI_Happ_1": 15.7, "HPI_GDP\/ca": "US$\t18 322", "HPI_Popula": "\t1 341 579", "HPI_GINI i": "Data unavailable" }, "geometry": { "type": "Point", "coordinates": [ -61.26567923346817, 10.457334081006888 ] } },
{ "type": "Feature", "properties": { "ADMIN": "Tonga", "NAME_EN": "Tonga", "HPI_HPI Ra": null, "HPI_Region": null, "HPI_Averag": null, "HPI_Aver_1": null, "HPI_Happy": null, "HPI_Footpr": null, "HPI_Inequa": null, "HPI_Ineq_1": null, "HPI_Ineq_2": null, "HPI_Happ_1": null, "HPI_GDP\/ca": null, "HPI_Popula": null, "HPI_GINI i": null }, "geometry": { "type": "Point", "coordinates": [ -174.809873409786007, -20.428431742537818 ] } },
{ "type": "Feature", "properties": { "ADMIN": "Togo", "NAME_EN": "Togo", "HPI_HPI Ra": 138, "HPI_Region": "Sub Saharan Africa", "HPI_Averag": 58.6, "HPI_Aver_1": 2.9, "HPI_Happy": 9.0, "HPI_Footpr": 1.1, "HPI_Inequa": "43 %", "HPI_Ineq_1": 39.6, "HPI_Ineq_2": 2.4, "HPI_Happ_1": 13.2, "HPI_GDP\/ca": "US$\t580", "HPI_Popula": "\t6 745 581", "HPI_GINI i": "Data unavailable" }, "geometry": { "type": "Point", "coordinates": [ 0.962328449768552, 8.525313561405255 ] } },
{ "type": "Feature", "properties": { "ADMIN": "East Timor", "NAME_EN": "East Timor", "HPI_HPI Ra": null, "HPI_Region": null, "HPI_Averag": null, "HPI_Aver_1": null, "HPI_Happy": null, "HPI_Footpr": null, "HPI_Inequa": null, "HPI_Ineq_1": null, "HPI_Ineq_2": null, "HPI_Happ_1": null, "HPI_GDP\/ca": null, "HPI_Popula": null, "HPI_GINI i": null }, "geometry": { "type": "Point", "coordinates": [ 125.844389820664858, -8.828891620465525 ] } },
{ "type": "Feature", "properties": { "ADMIN": "Thailand", "NAME_EN": "Thailand", "HPI_HPI Ra": 9, "HPI_Region": "Asia Pacific", "HPI_Averag": 74.1, "HPI_Aver_1": 6.3, "HPI_Happy": 38.6, "HPI_Footpr": 2.7, "HPI_Inequa": "15 %", "HPI_Ineq_1": 66.3, "HPI_Ineq_2": 6.0, "HPI_Happ_1": 37.3, "HPI_GDP\/ca": "US$\t5 918", "HPI_Popula": "\t67 164 130", "HPI_GINI i": "39,3" }, "geometry": { "type": "Point", "coordinates": [ 101.002881303558979, 15.11815794183385 ] } },
{ "type": "Feature", "properties": { "ADMIN": "United Republic of Tanzania", "NAME_EN": "Tanzania", "HPI_HPI Ra": null, "HPI_Region": null, "HPI_Averag": null, "HPI_Aver_1": null, "HPI_Happy": null, "HPI_Footpr": null, "HPI_Inequa": null, "HPI_Ineq_1": null, "HPI_Ineq_2": null, "HPI_Happ_1": null, "HPI_GDP\/ca": null, "HPI_Popula": null, "HPI_GINI i": null }, "geometry": { "type": "Point", "coordinates": [ 34.813099809324527, -6.275654083316635 ] } },
{ "type": "Feature", "properties": { "ADMIN": "Tajikistan", "NAME_EN": "Tajikistan", "HPI_HPI Ra": 25, "HPI_Region": "Post-communist", "HPI_Averag": 69.0, "HPI_Aver_1": 4.5, "HPI_Happy": 22.2, "HPI_Footpr": 0.9, "HPI_Inequa": "26 %", "HPI_Ineq_1": 53.0, "HPI_Ineq_2": 4.3, "HPI_Happ_1": 34.2, "HPI_GDP\/ca": "US$\t962", "HPI_Popula": "\t7 930 929", "HPI_GINI i": "Data unavailable" }, "geometry": { "type": "Point", "coordinates": [ 71.013626309064335, 38.530453896299647 ] } },
{ "type": "Feature", "properties": { "ADMIN": "Taiwan", "NAME_EN": "Taiwan", "HPI_HPI Ra": null, "HPI_Region": null, "HPI_Averag": null, "HPI_Aver_1": null, "HPI_Happy": null, "HPI_Footpr": null, "HPI_Inequa": null, "HPI_Ineq_1": null, "HPI_Ineq_2": null, "HPI_Happ_1": null, "HPI_GDP\/ca": null, "HPI_Popula": null, "HPI_GINI i": null }, "geometry": { "type": "Point", "coordinates": [ 120.954272813631093, 23.753992794953845 ] } },
{ "type": "Feature", "properties": { "ADMIN": "Syria", "NAME_EN": "Syria", "HPI_HPI Ra": 113, "HPI_Region": "Middle East and North Africa", "HPI_Averag": 70.4, "HPI_Aver_1": 3.2, "HPI_Happy": 14.7, "HPI_Footpr": 1.5, "HPI_Inequa": "30 %", "HPI_Ineq_1": 60.2, "HPI_Ineq_2": 2.6, "HPI_Happ_1": 19.1, "HPI_GDP\/ca": "US$\t2 080", "HPI_Popula": "\t21 427 155", "HPI_GINI i": "Data unavailable" }, "geometry": { "type": "Point", "coordinates": [ 38.507882042531655, 35.025473893969867 ] } },
{ "type": "Feature", "properties": { "ADMIN": "Switzerland", "NAME_EN": "Switzerland", "HPI_HPI Ra": 24, "HPI_Region": "Europe", "HPI_Averag": 82.6, "HPI_Aver_1": 7.8, "HPI_Happy": 59.3, "HPI_Footpr": 5.8, "HPI_Inequa": "6 %", "HPI_Ineq_1": 79.4, "HPI_Ineq_2": 7.6, "HPI_Happ_1": 34.3, "HPI_GDP\/ca": "US$\t83 209", "HPI_Popula": "\t7 996 861", "HPI_GINI i": "31,6" }, "geometry": { "type": "Point", "coordinates": [ 8.208674706150365, 46.797858783616107 ] } },
{ "type": "Feature", "properties": { "ADMIN": "Sweden", "NAME_EN": "Sweden", "HPI_HPI Ra": 61, "HPI_Region": "Europe", "HPI_Averag": 81.8, "HPI_Aver_1": 7.6, "HPI_Happy": 57.4, "HPI_Footpr": 7.3, "HPI_Inequa": "6 %", "HPI_Ineq_1": 79.1, "HPI_Ineq_2": 7.4, "HPI_Happ_1": 28.0, "HPI_GDP\/ca": "US$\t57 134", "HPI_Popula": "\t9 519 374", "HPI_GINI i": "27,3" }, "geometry": { "type": "Point", "coordinates": [ 16.745580486944171, 62.779665193105934 ] } },
{ "type": "Feature", "properties": { "ADMIN": "eSwatini", "NAME_EN": "eSwatini", "HPI_HPI Ra": null, "HPI_Region": null, "HPI_Averag": null, "HPI_Aver_1": null, "HPI_Happy": null, "HPI_Footpr": null, "HPI_Inequa": null, "HPI_Ineq_1": null, "HPI_Ineq_2": null, "HPI_Happ_1": null, "HPI_GDP\/ca": null, "HPI_Popula": null, "HPI_GINI i": null }, "geometry": { "type": "Point", "coordinates": [ 31.481936901115709, -26.558430450174331 ] } },
{ "type": "Feature", "properties": { "ADMIN": "Suriname", "NAME_EN": "Suriname", "HPI_HPI Ra": 75, "HPI_Region": "Americas", "HPI_Averag": 70.8, "HPI_Aver_1": 6.3, "HPI_Happy": 35.2, "HPI_Footpr": 4.3, "HPI_Inequa": "19 %", "HPI_Ineq_1": 61.2, "HPI_Ineq_2": 5.9, "HPI_Happ_1": 25.4, "HPI_GDP\/ca": "US$\t9 422", "HPI_Popula": "\t528 535", "HPI_GINI i": "Data unavailable" }, "geometry": { "type": "Point", "coordinates": [ -55.912345695054491, 4.13055412990106 ] } },
{ "type": "Feature", "properties": { "ADMIN": "South Sudan", "NAME_EN": "South Sudan", "HPI_HPI Ra": null, "HPI_Region": null, "HPI_Averag": null, "HPI_Aver_1": null, "HPI_Happy": null, "HPI_Footpr": null, "HPI_Inequa": null, "HPI_Ineq_1": null, "HPI_Ineq_2": null, "HPI_Happ_1": null, "HPI_GDP\/ca": null, "HPI_Popula": null, "HPI_GINI i": null }, "geometry": { "type": "Point", "coordinates": [ 30.247900018577241, 7.308779449223432 ] } },
{ "type": "Feature", "properties": { "ADMIN": "Sudan", "NAME_EN": "Sudan", "HPI_HPI Ra": null, "HPI_Region": null, "HPI_Averag": null, "HPI_Aver_1": null, "HPI_Happy": null, "HPI_Footpr": null, "HPI_Inequa": null, "HPI_Ineq_1": null, "HPI_Ineq_2": null, "HPI_Happ_1": null, "HPI_GDP\/ca": null, "HPI_Popula": null, "HPI_GINI i": null }, "geometry": { "type": "Point", "coordinates": [ 29.940468119895794, 15.990356685582737 ] } },
{ "type": "Feature", "properties": { "ADMIN": "Sri Lanka", "NAME_EN": "Sri Lanka", "HPI_HPI Ra": 28, "HPI_Region": "Asia Pacific", "HPI_Averag": 74.6, "HPI_Aver_1": 4.2, "HPI_Happy": 24.9, "HPI_Footpr": 1.3, "HPI_Inequa": "17 %", "HPI_Ineq_1": 68.6, "HPI_Ineq_2": 3.8, "HPI_Happ_1": 33.8, "HPI_GDP\/ca": "US$\t3 351", "HPI_Popula": "\t20 424 000", "HPI_GINI i": "38,6" }, "geometry": { "type": "Point", "coordinates": [ 80.701082378239377, 7.612665092241421 ] } },
{ "type": "Feature", "properties": { "ADMIN": "Spain", "NAME_EN": "Spain", "HPI_HPI Ra": 15, "HPI_Region": "Europe", "HPI_Averag": 82.2, "HPI_Aver_1": 6.3, "HPI_Happy": 45.3, "HPI_Footpr": 3.7, "HPI_Inequa": "10 %", "HPI_Ineq_1": 79.3, "HPI_Ineq_2": 5.9, "HPI_Happ_1": 36.0, "HPI_GDP\/ca": "US$\t28 648", "HPI_Popula": "\t46 773 055", "HPI_GINI i": "35,9" }, "geometry": { "type": "Point", "coordinates": [ -3.647550473229142, 40.244486981148455 ] } },
{ "type": "Feature", "properties": { "ADMIN": "South Korea", "NAME_EN": "South Korea", "HPI_HPI Ra": 80, "HPI_Region": "Asia Pacific", "HPI_Averag": 81.3, "HPI_Aver_1": 6.0, "HPI_Happy": 42.2, "HPI_Footpr": 5.7, "HPI_Inequa": "11 %", "HPI_Ineq_1": 78.3, "HPI_Ineq_2": 5.5, "HPI_Happ_1": 24.8, "HPI_GDP\/ca": "US$\t24 454", "HPI_Popula": "\t50 004 441", "HPI_GINI i": "Data unavailable" }, "geometry": { "type": "Point", "coordinates": [ 127.839160864017856, 36.385239834651983 ] } },
{ "type": "Feature", "properties": { "ADMIN": "South Africa", "NAME_EN": "South Africa", "HPI_HPI Ra": 128, "HPI_Region": "Sub Saharan Africa", "HPI_Averag": 56.3, "HPI_Aver_1": 5.1, "HPI_Happy": 18.5, "HPI_Footpr": 3.3, "HPI_Inequa": "33 %", "HPI_Ineq_1": 41.8, "HPI_Ineq_2": 4.6, "HPI_Happ_1": 15.9, "HPI_GDP\/ca": "US$\t7 592", "HPI_Popula": "\t52 341 695", "HPI_GINI i": "Data unavailable" }, "geometry": { "type": "Point", "coordinates": [ 25.083900925067283, -29.000340953423432 ] } },
{ "type": "Feature", "properties": { "ADMIN": "Somalia", "NAME_EN": "Somalia", "HPI_HPI Ra": null, "HPI_Region": null, "HPI_Averag": null, "HPI_Aver_1": null, "HPI_Happy": null, "HPI_Footpr": null, "HPI_Inequa": null, "HPI_Ineq_1": null, "HPI_Ineq_2": null, "HPI_Happ_1": null, "HPI_GDP\/ca": null, "HPI_Popula": null, "HPI_GINI i": null }, "geometry": { "type": "Point", "coordinates": [ 45.707144869943612, 4.750628760548464 ] } },
{ "type": "Feature", "properties": { "ADMIN": "Somaliland", "NAME_EN": "Somaliland", "HPI_HPI Ra": null, "HPI_Region": null, "HPI_Averag": null, "HPI_Aver_1": null, "HPI_Happy": null, "HPI_Footpr": null, "HPI_Inequa": null, "HPI_Ineq_1": null, "HPI_Ineq_2": null, "HPI_Happ_1": null, "HPI_GDP\/ca": null, "HPI_Popula": null, "HPI_GINI i": null }, "geometry": { "type": "Point", "coordinates": [ 46.25198395099158, 9.733454963108649 ] } },
{ "type": "Feature", "properties": { "ADMIN": "Solomon Islands", "NAME_EN": "Solomon Islands", "HPI_HPI Ra": null, "HPI_Region": null, "HPI_Averag": null, "HPI_Aver_1": null, "HPI_Happy": null, "HPI_Footpr": null, "HPI_Inequa": null, "HPI_Ineq_1": null, "HPI_Ineq_2": null, "HPI_Happ_1": null, "HPI_GDP\/ca": null, "HPI_Popula": null, "HPI_GINI i": null }, "geometry": { "type": "Point", "coordinates": [ 159.63287667836957, -8.921780216922764 ] } },
{ "type": "Feature", "properties": { "ADMIN": "Slovakia", "NAME_EN": "Slovakia", "HPI_HPI Ra": 59, "HPI_Region": "Post-communist", "HPI_Averag": 75.9, "HPI_Aver_1": 5.9, "HPI_Happy": 37.9, "HPI_Footpr": 4.1, "HPI_Inequa": "13 %", "HPI_Ineq_1": 71.9, "HPI_Ineq_2": 5.4, "HPI_Happ_1": 28.2, "HPI_GDP\/ca": "US$\t17 207", "HPI_Popula": "\t5 407 579", "HPI_GINI i": "26,1" }, "geometry": { "type": "Point", "coordinates": [ 19.479052181064144, 48.705475281323046 ] } },
{ "type": "Feature", "properties": { "ADMIN": "Slovenia", "NAME_EN": "Slovenia", "HPI_HPI Ra": 82, "HPI_Region": "Post-communist", "HPI_Averag": 80.0, "HPI_Aver_1": 6.1, "HPI_Happy": 42.6, "HPI_Footpr": 5.8, "HPI_Inequa": "10 %", "HPI_Ineq_1": 77.1, "HPI_Ineq_2": 5.7, "HPI_Happ_1": 24.6, "HPI_GDP\/ca": "US$\t22 478", "HPI_Popula": "\t2 057 159", "HPI_GINI i": "25,6" }, "geometry": { "type": "Point", "coordinates": [ 14.804442377556194, 46.115547720698572 ] } },
{ "type": "Feature", "properties": { "ADMIN": "Singapore", "NAME_EN": "Singapore", "HPI_HPI Ra": null, "HPI_Region": null, "HPI_Averag": null, "HPI_Aver_1": null, "HPI_Happy": null, "HPI_Footpr": null, "HPI_Inequa": null, "HPI_Ineq_1": null, "HPI_Ineq_2": null, "HPI_Happ_1": null, "HPI_GDP\/ca": null, "HPI_Popula": null, "HPI_GINI i": null }, "geometry": { "type": "Point", "coordinates": [ 103.817255920043465, 1.358760870750096 ] } },
{ "type": "Feature", "properties": { "ADMIN": "Sierra Leone", "NAME_EN": "Sierra Leone", "HPI_HPI Ra": 133, "HPI_Region": "Sub Saharan Africa", "HPI_Averag": 49.8, "HPI_Aver_1": 4.5, "HPI_Happy": 10.8, "HPI_Footpr": 1.2, "HPI_Inequa": "50 %", "HPI_Ineq_1": 28.2, "HPI_Ineq_2": 4.0, "HPI_Happ_1": 15.3, "HPI_GDP\/ca": "US$\t619", "HPI_Popula": "\t6 043 157", "HPI_GINI i": "Data unavailable" }, "geometry": { "type": "Point", "coordinates": [ -11.79271246678975, 8.563295930375892 ] } },
{ "type": "Feature", "properties": { "ADMIN": "Seychelles", "NAME_EN": "Seychelles", "HPI_HPI Ra": null, "HPI_Region": null, "HPI_Averag": null, "HPI_Aver_1": null, "HPI_Happy": null, "HPI_Footpr": null, "HPI_Inequa": null, "HPI_Ineq_1": null, "HPI_Ineq_2": null, "HPI_Happ_1": null, "HPI_GDP\/ca": null, "HPI_Popula": null, "HPI_GINI i": null }, "geometry": { "type": "Point", "coordinates": [ 55.47603279124376, -4.660990935223645 ] } },
{ "type": "Feature", "properties": { "ADMIN": "Republic of Serbia", "NAME_EN": "Serbia", "HPI_HPI Ra": null, "HPI_Region": null, "HPI_Averag": null, "HPI_Aver_1": null, "HPI_Happy": null, "HPI_Footpr": null, "HPI_Inequa": null, "HPI_Ineq_1": null, "HPI_Ineq_2": null, "HPI_Happ_1": null, "HPI_GDP\/ca": null, "HPI_Popula": null, "HPI_GINI i": null }, "geometry": { "type": "Point", "coordinates": [ 20.789583336273321, 44.221503199320026 ] } },
{ "type": "Feature", "properties": { "ADMIN": "Senegal", "NAME_EN": "Senegal", "HPI_HPI Ra": 101, "HPI_Region": "Sub Saharan Africa", "HPI_Averag": 65.4, "HPI_Aver_1": 3.7, "HPI_Happy": 15.5, "HPI_Footpr": 1.2, "HPI_Inequa": "33 %", "HPI_Ineq_1": 49.1, "HPI_Ineq_2": 3.3, "HPI_Happ_1": 21.9, "HPI_GDP\/ca": "US$\t1 019", "HPI_Popula": "\t13 780 108", "HPI_GINI i": "Data unavailable" }, "geometry": { "type": "Point", "coordinates": [ -14.473492397282305, 14.366241731282718 ] } },
{ "type": "Feature", "properties": { "ADMIN": "Saudi Arabia", "NAME_EN": "Saudi Arabia", "HPI_HPI Ra": null, "HPI_Region": null, "HPI_Averag": null, "HPI_Aver_1": null, "HPI_Happy": null, "HPI_Footpr": null, "HPI_Inequa": null, "HPI_Ineq_1": null, "HPI_Ineq_2": null, "HPI_Happ_1": null, "HPI_GDP\/ca": null, "HPI_Popula": null, "HPI_GINI i": null }, "geometry": { "type": "Point", "coordinates": [ 44.536862711404247, 24.12245840728286 ] } },
{ "type": "Feature", "properties": { "ADMIN": "São Tomé and Principe", "NAME_EN": "São Tomé and Príncipe", "HPI_HPI Ra": null, "HPI_Region": null, "HPI_Averag": null, "HPI_Aver_1": null, "HPI_Happy": null, "HPI_Footpr": null, "HPI_Inequa": null, "HPI_Ineq_1": null, "HPI_Ineq_2": null, "HPI_Happ_1": null, "HPI_GDP\/ca": null, "HPI_Popula": null, "HPI_GINI i": null }, "geometry": { "type": "Point", "coordinates": [ 6.724296579272552, 0.443914449308523 ] } },
{ "type": "Feature", "properties": { "ADMIN": "San Marino", "NAME_EN": "San Marino", "HPI_HPI Ra": null, "HPI_Region": null, "HPI_Averag": null, "HPI_Aver_1": null, "HPI_Happy": null, "HPI_Footpr": null, "HPI_Inequa": null, "HPI_Ineq_1": null, "HPI_Ineq_2": null, "HPI_Happ_1": null, "HPI_GDP\/ca": null, "HPI_Popula": null, "HPI_GINI i": null }, "geometry": { "type": "Point", "coordinates": [ 12.45922333583588, 43.941867467661353 ] } },
{ "type": "Feature", "properties": { "ADMIN": "Samoa", "NAME_EN": "Samoa", "HPI_HPI Ra": null, "HPI_Region": null, "HPI_Averag": null, "HPI_Aver_1": null, "HPI_Happy": null, "HPI_Footpr": null, "HPI_Inequa": null, "HPI_Ineq_1": null, "HPI_Ineq_2": null, "HPI_Happ_1": null, "HPI_GDP\/ca": null, "HPI_Popula": null, "HPI_GINI i": null }, "geometry": { "type": "Point", "coordinates": [ -172.164850640267304, -13.753243463807346 ] } },
{ "type": "Feature", "properties": { "ADMIN": "Saint Vincent and the Grenadines", "NAME_EN": "Saint Vincent and the Grenadines", "HPI_HPI Ra": null, "HPI_Region": null, "HPI_Averag": null, "HPI_Aver_1": null, "HPI_Happy": null, "HPI_Footpr": null, "HPI_Inequa": null, "HPI_Ineq_1": null, "HPI_Ineq_2": null, "HPI_Happ_1": null, "HPI_GDP\/ca": null, "HPI_Popula": null, "HPI_GINI i": null }, "geometry": { "type": "Point", "coordinates": [ -61.201296949693685, 13.224722689966066 ] } },
{ "type": "Feature", "properties": { "ADMIN": "Saint Lucia", "NAME_EN": "Saint Lucia", "HPI_HPI Ra": null, "HPI_Region": null, "HPI_Averag": null, "HPI_Aver_1": null, "HPI_Happy": null, "HPI_Footpr": null, "HPI_Inequa": null, "HPI_Ineq_1": null, "HPI_Ineq_2": null, "HPI_Happ_1": null, "HPI_GDP\/ca": null, "HPI_Popula": null, "HPI_GINI i": null }, "geometry": { "type": "Point", "coordinates": [ -60.969699225277026, 13.894794814534253 ] } },
{ "type": "Feature", "properties": { "ADMIN": "Saint Kitts and Nevis", "NAME_EN": "Saint Kitts and Nevis", "HPI_HPI Ra": null, "HPI_Region": null, "HPI_Averag": null, "HPI_Aver_1": null, "HPI_Happy": null, "HPI_Footpr": null, "HPI_Inequa": null, "HPI_Ineq_1": null, "HPI_Ineq_2": null, "HPI_Happ_1": null, "HPI_GDP\/ca": null, "HPI_Popula": null, "HPI_GINI i": null }, "geometry": { "type": "Point", "coordinates": [ -62.687552649584312, 17.264599504667427 ] } },
{ "type": "Feature", "properties": { "ADMIN": "Rwanda", "NAME_EN": "Rwanda", "HPI_HPI Ra": 111, "HPI_Region": "Sub Saharan Africa", "HPI_Averag": 63.1, "HPI_Aver_1": 3.3, "HPI_Happy": 12.4, "HPI_Footpr": 0.9, "HPI_Inequa": "37 %", "HPI_Ineq_1": 44.3, "HPI_Ineq_2": 3.0, "HPI_Happ_1": 19.6, "HPI_GDP\/ca": "US$\t667", "HPI_Popula": "\t10 817 350", "HPI_GINI i": "Data unavailable" }, "geometry": { "type": "Point", "coordinates": [ 29.919885152416292, -1.990338316925181 ] } },
{ "type": "Feature", "properties": { "ADMIN": "Russia", "NAME_EN": "Russia", "HPI_HPI Ra": 116, "HPI_Region": "Post-communist", "HPI_Averag": 69.5, "HPI_Aver_1": 5.6, "HPI_Happy": 31.7, "HPI_Footpr": 5.7, "HPI_Inequa": "16 %", "HPI_Ineq_1": 63.4, "HPI_Ineq_2": 5.2, "HPI_Happ_1": 18.7, "HPI_GDP\/ca": "US$\t14 079", "HPI_Popula": "\t143 201 676", "HPI_GINI i": "41,6" }, "geometry": { "type": "Point", "coordinates": [ 96.620510124704822, 61.962859093355966 ] } },
{ "type": "Feature", "properties": { "ADMIN": "Romania", "NAME_EN": "Romania", "HPI_HPI Ra": 55, "HPI_Region": "Post-communist", "HPI_Averag": 74.3, "HPI_Aver_1": 5.2, "HPI_Happy": 30.1, "HPI_Footpr": 2.7, "HPI_Inequa": "19 %", "HPI_Ineq_1": 68.1, "HPI_Ineq_2": 4.6, "HPI_Happ_1": 28.8, "HPI_GDP\/ca": "US$\t8 577", "HPI_Popula": "\t20 058 035", "HPI_GINI i": "27,3" }, "geometry": { "type": "Point", "coordinates": [ 24.972930393288035, 45.852431274240821 ] } },
{ "type": "Feature", "properties": { "ADMIN": "Qatar", "NAME_EN": "Qatar", "HPI_HPI Ra": null, "HPI_Region": null, "HPI_Averag": null, "HPI_Aver_1": null, "HPI_Happy": null, "HPI_Footpr": null, "HPI_Inequa": null, "HPI_Ineq_1": null, "HPI_Ineq_2": null, "HPI_Happ_1": null, "HPI_GDP\/ca": null, "HPI_Popula": null, "HPI_GINI i": null }, "geometry": { "type": "Point", "coordinates": [ 51.184796321161436, 25.306011876266851 ] } },
{ "type": "Feature", "properties": { "ADMIN": "Portugal", "NAME_EN": "Portugal", "HPI_HPI Ra": 79, "HPI_Region": "Europe", "HPI_Averag": 80.3, "HPI_Aver_1": 5.0, "HPI_Happy": 32.3, "HPI_Footpr": 3.9, "HPI_Inequa": "16 %", "HPI_Ineq_1": 77.2, "HPI_Ineq_2": 4.3, "HPI_Happ_1": 24.8, "HPI_GDP\/ca": "US$\t20 577", "HPI_Popula": "\t10 514 844", "HPI_GINI i": "36,0" }, "geometry": { "type": "Point", "coordinates": [ -8.50104361268307, 39.59550671449793 ] } },
{ "type": "Feature", "properties": { "ADMIN": "Poland", "NAME_EN": "Poland", "HPI_HPI Ra": 62, "HPI_Region": "Post-communist", "HPI_Averag": 76.9, "HPI_Aver_1": 5.9, "HPI_Happy": 39.2, "HPI_Footpr": 4.4, "HPI_Inequa": "11 %", "HPI_Ineq_1": 72.9, "HPI_Ineq_2": 5.5, "HPI_Happ_1": 27.5, "HPI_GDP\/ca": "US$\t13 142", "HPI_Popula": "\t38 063 164", "HPI_GINI i": "32,4" }, "geometry": { "type": "Point", "coordinates": [ 19.390128349323042, 52.127595644173667 ] } },
{ "type": "Feature", "properties": { "ADMIN": "Philippines", "NAME_EN": "Philippines", "HPI_HPI Ra": 20, "HPI_Region": "Asia Pacific", "HPI_Averag": 67.9, "HPI_Aver_1": 5.0, "HPI_Happy": 24.1, "HPI_Footpr": 1.1, "HPI_Inequa": "26 %", "HPI_Ineq_1": 56.9, "HPI_Ineq_2": 4.4, "HPI_Happ_1": 35.0, "HPI_GDP\/ca": "US$\t2 605", "HPI_Popula": "\t96 017 322", "HPI_GINI i": "43,0" }, "geometry": { "type": "Point", "coordinates": [ 122.883932529270425, 11.775367780874147 ] } },
{ "type": "Feature", "properties": { "ADMIN": "Peru", "NAME_EN": "Peru", "HPI_HPI Ra": 21, "HPI_Region": "Americas", "HPI_Averag": 74.1, "HPI_Aver_1": 5.8, "HPI_Happy": 32.9, "HPI_Footpr": 2.3, "HPI_Inequa": "21 %", "HPI_Ineq_1": 63.5, "HPI_Ineq_2": 5.3, "HPI_Happ_1": 34.6, "HPI_GDP\/ca": "US$\t6 389", "HPI_Popula": "\t30 158 768", "HPI_GINI i": "45,1" }, "geometry": { "type": "Point", "coordinates": [ -74.382426850958211, -9.152803813291426 ] } },
{ "type": "Feature", "properties": { "ADMIN": "Paraguay", "NAME_EN": "Paraguay", "HPI_HPI Ra": 91, "HPI_Region": "Americas", "HPI_Averag": 72.6, "HPI_Aver_1": 5.8, "HPI_Happy": 31.8, "HPI_Footpr": 4.2, "HPI_Inequa": "22 %", "HPI_Ineq_1": 59.4, "HPI_Ineq_2": 5.5, "HPI_Happ_1": 23.3, "HPI_GDP\/ca": "US$\t3 858", "HPI_Popula": "\t6 379 162", "HPI_GINI i": "48,2" }, "geometry": { "type": "Point", "coordinates": [ -58.400137031999016, -23.228239132027074 ] } },
{ "type": "Feature", "properties": { "ADMIN": "Papua New Guinea", "NAME_EN": "Papua New Guinea", "HPI_HPI Ra": null, "HPI_Region": null, "HPI_Averag": null, "HPI_Aver_1": null, "HPI_Happy": null, "HPI_Footpr": null, "HPI_Inequa": null, "HPI_Ineq_1": null, "HPI_Ineq_2": null, "HPI_Happ_1": null, "HPI_GDP\/ca": null, "HPI_Popula": null, "HPI_GINI i": null }, "geometry": { "type": "Point", "coordinates": [ 145.207447523550968, -6.464166460829708 ] } },
{ "type": "Feature", "properties": { "ADMIN": "Panama", "NAME_EN": "Panama", "HPI_HPI Ra": 6, "HPI_Region": "Americas", "HPI_Averag": 77.2, "HPI_Aver_1": 6.9, "HPI_Happy": 42.1, "HPI_Footpr": 2.8, "HPI_Inequa": "19 %", "HPI_Ineq_1": 68.3, "HPI_Ineq_2": 6.3, "HPI_Happ_1": 39.5, "HPI_GDP\/ca": "US$\t10 139", "HPI_Popula": "\t3 743 761", "HPI_GINI i": "51,9" }, "geometry": { "type": "Point", "coordinates": [ -80.119151561247506, 8.517507974911187 ] } },
{ "type": "Feature", "properties": { "ADMIN": "Palau", "NAME_EN": "Palau", "HPI_HPI Ra": null, "HPI_Region": null, "HPI_Averag": null, "HPI_Aver_1": null, "HPI_Happy": null, "HPI_Footpr": null, "HPI_Inequa": null, "HPI_Ineq_1": null, "HPI_Ineq_2": null, "HPI_Happ_1": null, "HPI_GDP\/ca": null, "HPI_Popula": null, "HPI_GINI i": null }, "geometry": { "type": "Point", "coordinates": [ 134.408079655229926, 7.287427836027131 ] } },
{ "type": "Feature", "properties": { "ADMIN": "Pakistan", "NAME_EN": "Pakistan", "HPI_HPI Ra": 36, "HPI_Region": "Asia Pacific", "HPI_Averag": 65.7, "HPI_Aver_1": 5.1, "HPI_Happy": 19.5, "HPI_Footpr": 0.8, "HPI_Inequa": "40 %", "HPI_Ineq_1": 44.1, "HPI_Ineq_2": 4.6, "HPI_Happ_1": 31.5, "HPI_GDP\/ca": "US$\t1 266", "HPI_Popula": "\t177 392 252", "HPI_GINI i": "Data unavailable" }, "geometry": { "type": "Point", "coordinates": [ 69.339579374780868, 29.949751503130759 ] } },
{ "type": "Feature", "properties": { "ADMIN": "Oman", "NAME_EN": "Oman", "HPI_HPI Ra": 106, "HPI_Region": "Middle East and North Africa", "HPI_Averag": 76.3, "HPI_Aver_1": 6.9, "HPI_Happy": 44.5, "HPI_Footpr": 7.5, "HPI_Inequa": "13 %", "HPI_Ineq_1": 70.9, "HPI_Ineq_2": 6.4, "HPI_Happ_1": 21.1, "HPI_GDP\/ca": "US$\t21 534", "HPI_Popula": "\t3 545 192", "HPI_GINI i": "Data unavailable" }, "geometry": { "type": "Point", "coordinates": [ 56.091661548270473, 20.605153325703494 ] } },
{ "type": "Feature", "properties": { "ADMIN": "Norway", "NAME_EN": "Norway", "HPI_HPI Ra": 12, "HPI_Region": "Europe", "HPI_Averag": 81.3, "HPI_Aver_1": 7.7, "HPI_Happy": 57.1, "HPI_Footpr": 5.0, "HPI_Inequa": "7 %", "HPI_Ineq_1": 78.6, "HPI_Ineq_2": 7.4, "HPI_Happ_1": 36.8, "HPI_GDP\/ca": "US$\t101 564", "HPI_Popula": "\t5 018 573", "HPI_GINI i": "25,9" }, "geometry": { "type": "Point", "coordinates": [ 15.348346562226242, 68.750155720549174 ] } },
{ "type": "Feature", "properties": { "ADMIN": "North Korea", "NAME_EN": "North Korea", "HPI_HPI Ra": null, "HPI_Region": null, "HPI_Averag": null, "HPI_Aver_1": null, "HPI_Happy": null, "HPI_Footpr": null, "HPI_Inequa": null, "HPI_Ineq_1": null, "HPI_Ineq_2": null, "HPI_Happ_1": null, "HPI_GDP\/ca": null, "HPI_Popula": null, "HPI_GINI i": null }, "geometry": { "type": "Point", "coordinates": [ 127.192479731943806, 40.153503109279804 ] } },
{ "type": "Feature", "properties": { "ADMIN": "Nigeria", "NAME_EN": "Nigeria", "HPI_HPI Ra": 95, "HPI_Region": "Sub Saharan Africa", "HPI_Averag": 52.1, "HPI_Aver_1": 5.5, "HPI_Happy": 15.5, "HPI_Footpr": 1.2, "HPI_Inequa": "44 %", "HPI_Ineq_1": 30.9, "HPI_Ineq_2": 5.2, "HPI_Happ_1": 22.2, "HPI_GDP\/ca": "US$\t2 740", "HPI_Popula": "\t168 240 403", "HPI_GINI i": "Data unavailable" }, "geometry": { "type": "Point", "coordinates": [ 8.089438947705723, 9.594114522326564 ] } },
{ "type": "Feature", "properties": { "ADMIN": "Niger", "NAME_EN": "Niger", "HPI_HPI Ra": 122, "HPI_Region": "Sub Saharan Africa", "HPI_Averag": 60.0, "HPI_Aver_1": 3.8, "HPI_Happy": 13.1, "HPI_Footpr": 1.6, "HPI_Inequa": "40 %", "HPI_Ineq_1": 38.9, "HPI_Ineq_2": 3.5, "HPI_Happ_1": 16.8, "HPI_GDP\/ca": "US$\t394", "HPI_Popula": "\t17 635 782", "HPI_GINI i": "Data unavailable" }, "geometry": { "type": "Point", "coordinates": [ 9.385458815387267, 17.419124929575641 ] } },
{ "type": "Feature", "properties": { "ADMIN": "Nicaragua", "NAME_EN": "Nicaragua", "HPI_HPI Ra": 7, "HPI_Region": "Americas", "HPI_Averag": 74.3, "HPI_Aver_1": 5.4, "HPI_Happy": 29.2, "HPI_Footpr": 1.4, "HPI_Inequa": "25 %", "HPI_Ineq_1": 63.4, "HPI_Ineq_2": 4.8, "HPI_Happ_1": 38.7, "HPI_GDP\/ca": "US$\t1 780", "HPI_Popula": "\t5 877 034", "HPI_GINI i": "Data unavailable" }, "geometry": { "type": "Point", "coordinates": [ -85.030529695058647, 12.847094289647206 ] } },
{ "type": "Feature", "properties": { "ADMIN": "New Zealand", "NAME_EN": "New Zealand", "HPI_HPI Ra": 38, "HPI_Region": "Asia Pacific", "HPI_Averag": 81.4, "HPI_Aver_1": 7.2, "HPI_Happy": 52.7, "HPI_Footpr": 5.6, "HPI_Inequa": "8 %", "HPI_Ineq_1": 77.7, "HPI_Ineq_2": 6.9, "HPI_Happ_1": 31.3, "HPI_GDP\/ca": "US$\t39 505", "HPI_Popula": "\t4 408 100", "HPI_GINI i": "Data unavailable" }, "geometry": { "type": "Point", "coordinates": [ 171.484923466014436, -41.811135568954384 ] } },
{ "type": "Feature", "properties": { "ADMIN": "Niue", "NAME_EN": "Niue", "HPI_HPI Ra": null, "HPI_Region": null, "HPI_Averag": null, "HPI_Aver_1": null, "HPI_Happy": null, "HPI_Footpr": null, "HPI_Inequa": null, "HPI_Ineq_1": null, "HPI_Ineq_2": null, "HPI_Happ_1": null, "HPI_GDP\/ca": null, "HPI_Popula": null, "HPI_GINI i": null }, "geometry": { "type": "Point", "coordinates": [ -169.869946818617422, -19.0494570812529 ] } },
{ "type": "Feature", "properties": { "ADMIN": "Cook Islands", "NAME_EN": "Cook Islands", "HPI_HPI Ra": null, "HPI_Region": null, "HPI_Averag": null, "HPI_Aver_1": null, "HPI_Happy": null, "HPI_Footpr": null, "HPI_Inequa": null, "HPI_Ineq_1": null, "HPI_Ineq_2": null, "HPI_Happ_1": null, "HPI_GDP\/ca": null, "HPI_Popula": null, "HPI_GINI i": null }, "geometry": { "type": "Point", "coordinates": [ -159.787242185415749, -21.219272881544303 ] } },
{ "type": "Feature", "properties": { "ADMIN": "Netherlands", "NAME_EN": "Netherlands", "HPI_HPI Ra": 18, "HPI_Region": "Europe", "HPI_Averag": 81.2, "HPI_Aver_1": 7.5, "HPI_Happy": 57.0, "HPI_Footpr": 5.3, "HPI_Inequa": "4 %", "HPI_Ineq_1": 78.2, "HPI_Ineq_2": 7.5, "HPI_Happ_1": 35.3, "HPI_GDP\/ca": "US$\t49 475", "HPI_Popula": "\t16 754 962", "HPI_GINI i": "28,0" }, "geometry": { "type": "Point", "coordinates": [ 5.281447930074402, 52.100789900247634 ] } },
{ "type": "Feature", "properties": { "ADMIN": "Aruba", "NAME_EN": "Aruba", "HPI_HPI Ra": null, "HPI_Region": null, "HPI_Averag": null, "HPI_Aver_1": null, "HPI_Happy": null, "HPI_Footpr": null, "HPI_Inequa": null, "HPI_Ineq_1": null, "HPI_Ineq_2": null, "HPI_Happ_1": null, "HPI_GDP\/ca": null, "HPI_Popula": null, "HPI_GINI i": null }, "geometry": { "type": "Point", "coordinates": [ -69.982677112509407, 12.520880383840192 ] } },
{ "type": "Feature", "properties": { "ADMIN": "Curaçao", "NAME_EN": "Curaçao", "HPI_HPI Ra": null, "HPI_Region": null, "HPI_Averag": null, "HPI_Aver_1": null, "HPI_Happy": null, "HPI_Footpr": null, "HPI_Inequa": null, "HPI_Ineq_1": null, "HPI_Ineq_2": null, "HPI_Happ_1": null, "HPI_GDP\/ca": null, "HPI_Popula": null, "HPI_GINI i": null }, "geometry": { "type": "Point", "coordinates": [ -68.97119368797361, 12.19551675455773 ] } },
{ "type": "Feature", "properties": { "ADMIN": "Nepal", "NAME_EN": "Nepal", "HPI_HPI Ra": 42, "HPI_Region": "Asia Pacific", "HPI_Averag": 68.8, "HPI_Aver_1": 4.2, "HPI_Happy": 20.2, "HPI_Footpr": 1.0, "HPI_Inequa": "27 %", "HPI_Ineq_1": 55.3, "HPI_Ineq_2": 3.8, "HPI_Happ_1": 30.5, "HPI_GDP\/ca": "US$\t685", "HPI_Popula": "\t27 500 515", "HPI_GINI i": "Data unavailable" }, "geometry": { "type": "Point", "coordinates": [ 83.91582640015595, 28.248913649588022 ] } },
{ "type": "Feature", "properties": { "ADMIN": "Nauru", "NAME_EN": "Nauru", "HPI_HPI Ra": null, "HPI_Region": null, "HPI_Averag": null, "HPI_Aver_1": null, "HPI_Happy": null, "HPI_Footpr": null, "HPI_Inequa": null, "HPI_Ineq_1": null, "HPI_Ineq_2": null, "HPI_Happ_1": null, "HPI_GDP\/ca": null, "HPI_Popula": null, "HPI_GINI i": null }, "geometry": { "type": "Point", "coordinates": [ 166.932568234126904, -0.51912638952226 ] } },
{ "type": "Feature", "properties": { "ADMIN": "Namibia", "NAME_EN": "Namibia", "HPI_HPI Ra": 103, "HPI_Region": "Sub Saharan Africa", "HPI_Averag": 64.0, "HPI_Aver_1": 4.7, "HPI_Happy": 21.3, "HPI_Footpr": 2.5, "HPI_Inequa": "26 %", "HPI_Ineq_1": 50.1, "HPI_Ineq_2": 4.4, "HPI_Happ_1": 21.6, "HPI_GDP\/ca": "US$\t5 680", "HPI_Popula": "\t2 291 645", "HPI_GINI i": "Data unavailable" }, "geometry": { "type": "Point", "coordinates": [ 17.209635667021857, -22.130325684215141 ] } },
{ "type": "Feature", "properties": { "ADMIN": "Mozambique", "NAME_EN": "Mozambique", "HPI_HPI Ra": 88, "HPI_Region": "Sub Saharan Africa", "HPI_Averag": 54.3, "HPI_Aver_1": 5.0, "HPI_Happy": 15.0, "HPI_Footpr": 0.9, "HPI_Inequa": "43 %", "HPI_Ineq_1": 34.5, "HPI_Ineq_2": 4.5, "HPI_Happ_1": 23.7, "HPI_GDP\/ca": "US$\t565", "HPI_Popula": "\t25 732 928", "HPI_GINI i": "Data unavailable" }, "geometry": { "type": "Point", "coordinates": [ 35.533675425889477, -17.273816425924689 ] } },
{ "type": "Feature", "properties": { "ADMIN": "Morocco", "NAME_EN": "Morocco", "HPI_HPI Ra": 33, "HPI_Region": "Middle East and North Africa", "HPI_Averag": 73.4, "HPI_Aver_1": 5.0, "HPI_Happy": 26.7, "HPI_Footpr": 1.7, "HPI_Inequa": "25 %", "HPI_Ineq_1": 61.6, "HPI_Ineq_2": 4.5, "HPI_Happ_1": 32.7, "HPI_GDP\/ca": "US$\t2 931", "HPI_Popula": "\t32 984 190", "HPI_GINI i": "Data unavailable" }, "geometry": { "type": "Point", "coordinates": [ -8.456157947977466, 29.837629546879224 ] } },
{ "type": "Feature", "properties": { "ADMIN": "Western Sahara", "NAME_EN": "Western Sahara", "HPI_HPI Ra": null, "HPI_Region": null, "HPI_Averag": null, "HPI_Aver_1": null, "HPI_Happy": null, "HPI_Footpr": null, "HPI_Inequa": null, "HPI_Ineq_1": null, "HPI_Ineq_2": null, "HPI_Happ_1": null, "HPI_GDP\/ca": null, "HPI_Popula": null, "HPI_GINI i": null }, "geometry": { "type": "Point", "coordinates": [ -12.219827548514212, 24.229567386505501 ] } },
{ "type": "Feature", "properties": { "ADMIN": "Montenegro", "NAME_EN": "Montenegro", "HPI_HPI Ra": 78, "HPI_Region": "Post-communist", "HPI_Averag": 75.8, "HPI_Aver_1": 5.2, "HPI_Happy": 32.1, "HPI_Footpr": 3.8, "HPI_Inequa": "16 %", "HPI_Ineq_1": 71.8, "HPI_Ineq_2": 4.6, "HPI_Happ_1": 25.1, "HPI_GDP\/ca": "US$\t6 587", "HPI_Popula": "\t620 601", "HPI_GINI i": "32,2" }, "geometry": { "type": "Point", "coordinates": [ 19.238839392474109, 42.78890259290791 ] } },
{ "type": "Feature", "properties": { "ADMIN": "Mongolia", "NAME_EN": "Mongolia", "HPI_HPI Ra": 136, "HPI_Region": "Asia Pacific", "HPI_Averag": 68.6, "HPI_Aver_1": 4.9, "HPI_Happy": 25.3, "HPI_Footpr": 6.1, "HPI_Inequa": "22 %", "HPI_Ineq_1": 56.9, "HPI_Ineq_2": 4.6, "HPI_Happ_1": 14.3, "HPI_GDP\/ca": "US$\t4 377", "HPI_Popula": "\t2 808 339", "HPI_GINI i": "33,8" }, "geometry": { "type": "Point", "coordinates": [ 103.052997648559511, 46.826815439394444 ] } },
{ "type": "Feature", "properties": { "ADMIN": "Moldova", "NAME_EN": "Moldova", "HPI_HPI Ra": null, "HPI_Region": null, "HPI_Averag": null, "HPI_Aver_1": null, "HPI_Happy": null, "HPI_Footpr": null, "HPI_Inequa": null, "HPI_Ineq_1": null, "HPI_Ineq_2": null, "HPI_Happ_1": null, "HPI_GDP\/ca": null, "HPI_Popula": null, "HPI_GINI i": null }, "geometry": { "type": "Point", "coordinates": [ 28.456733724130718, 47.194988044178551 ] } },
{ "type": "Feature", "properties": { "ADMIN": "Monaco", "NAME_EN": "Monaco", "HPI_HPI Ra": null, "HPI_Region": null, "HPI_Averag": null, "HPI_Aver_1": null, "HPI_Happy": null, "HPI_Footpr": null, "HPI_Inequa": null, "HPI_Ineq_1": null, "HPI_Ineq_2": null, "HPI_Happ_1": null, "HPI_GDP\/ca": null, "HPI_Popula": null, "HPI_GINI i": null }, "geometry": { "type": "Point", "coordinates": [ 7.406276768562416, 43.752746267200919 ] } },
{ "type": "Feature", "properties": { "ADMIN": "Mexico", "NAME_EN": "Mexico", "HPI_HPI Ra": 2, "HPI_Region": "Americas", "HPI_Averag": 76.4, "HPI_Aver_1": 7.3, "HPI_Happy": 44.3, "HPI_Footpr": 2.9, "HPI_Inequa": "19 %", "HPI_Ineq_1": 66.3, "HPI_Ineq_2": 6.8, "HPI_Happ_1": 40.7, "HPI_GDP\/ca": "US$\t9 703", "HPI_Popula": "\t122 070 963", "HPI_GINI i": "48,1" }, "geometry": { "type": "Point", "coordinates": [ -102.523451691888795, 23.947537240640305 ] } },
{ "type": "Feature", "properties": { "ADMIN": "Mauritius", "NAME_EN": "Mauritius", "HPI_HPI Ra": 63, "HPI_Region": "Sub Saharan Africa", "HPI_Averag": 74.0, "HPI_Aver_1": 5.5, "HPI_Happy": 33.1, "HPI_Footpr": 3.5, "HPI_Inequa": "17 %", "HPI_Ineq_1": 66.7, "HPI_Ineq_2": 5.1, "HPI_Happ_1": 27.4, "HPI_GDP\/ca": "US$\t9 114", "HPI_Popula": "\t1 255 882", "HPI_GINI i": "35,8" }, "geometry": { "type": "Point", "coordinates": [ 57.571205506079792, -20.277687043323169 ] } },
{ "type": "Feature", "properties": { "ADMIN": "Mauritania", "NAME_EN": "Mauritania", "HPI_HPI Ra": 117, "HPI_Region": "Sub Saharan Africa", "HPI_Averag": 62.6, "HPI_Aver_1": 4.7, "HPI_Happy": 18.0, "HPI_Footpr": 2.5, "HPI_Inequa": "37 %", "HPI_Ineq_1": 41.5, "HPI_Ineq_2": 4.5, "HPI_Happ_1": 18.0, "HPI_GDP\/ca": "US$\t1 283", "HPI_Popula": "\t3 777 067", "HPI_GINI i": "Data unavailable" }, "geometry": { "type": "Point", "coordinates": [ -10.347798145489143, 20.257367055969212 ] } },
{ "type": "Feature", "properties": { "ADMIN": "Malta", "NAME_EN": "Malta", "HPI_HPI Ra": 53, "HPI_Region": "Europe", "HPI_Averag": 80.2, "HPI_Aver_1": 6.0, "HPI_Happy": 40.8, "HPI_Footpr": 4.4, "HPI_Inequa": "13 %", "HPI_Ineq_1": 76.6, "HPI_Ineq_2": 5.5, "HPI_Happ_1": 29.0, "HPI_GDP\/ca": "US$\t21 176", "HPI_Popula": "\t419 455", "HPI_GINI i": "Data unavailable" }, "geometry": { "type": "Point", "coordinates": [ 14.405233164255201, 35.921496322054395 ] } },
{ "type": "Feature", "properties": { "ADMIN": "Mali", "NAME_EN": "Mali", "HPI_HPI Ra": null, "HPI_Region": null, "HPI_Averag": null, "HPI_Aver_1": null, "HPI_Happy": null, "HPI_Footpr": null, "HPI_Inequa": null, "HPI_Ineq_1": null, "HPI_Ineq_2": null, "HPI_Happ_1": null, "HPI_GDP\/ca": null, "HPI_Popula": null, "HPI_GINI i": null }, "geometry": { "type": "Point", "coordinates": [ -3.542690648509367, 17.3458158134836 ] } },
{ "type": "Feature", "properties": { "ADMIN": "Maldives", "NAME_EN": "Maldives", "HPI_HPI Ra": null, "HPI_Region": null, "HPI_Averag": null, "HPI_Aver_1": null, "HPI_Happy": null, "HPI_Footpr": null, "HPI_Inequa": null, "HPI_Ineq_1": null, "HPI_Ineq_2": null, "HPI_Happ_1": null, "HPI_GDP\/ca": null, "HPI_Popula": null, "HPI_GINI i": null }, "geometry": { "type": "Point", "coordinates": [ 73.457130041949597, 3.728709199880613 ] } },
{ "type": "Feature", "properties": { "ADMIN": "Malaysia", "NAME_EN": "Malaysia", "HPI_HPI Ra": 46, "HPI_Region": "Asia Pacific", "HPI_Averag": 74.4, "HPI_Aver_1": 5.9, "HPI_Happy": 38.3, "HPI_Footpr": 3.7, "HPI_Inequa": "10 %", "HPI_Ineq_1": 69.5, "HPI_Ineq_2": 5.7, "HPI_Happ_1": 30.3, "HPI_GDP\/ca": "US$\t10 835", "HPI_Popula": "\t29 021 940", "HPI_GINI i": "Data unavailable" }, "geometry": { "type": "Point", "coordinates": [ 109.697622842647164, 3.789868455713093 ] } },
{ "type": "Feature", "properties": { "ADMIN": "Malawi", "NAME_EN": "Malawi", "HPI_HPI Ra": 98, "HPI_Region": "Sub Saharan Africa", "HPI_Averag": 60.1, "HPI_Aver_1": 4.3, "HPI_Happy": 13.7, "HPI_Footpr": 0.8, "HPI_Inequa": "45 %", "HPI_Ineq_1": 40.4, "HPI_Ineq_2": 3.5, "HPI_Happ_1": 22.1, "HPI_GDP\/ca": "US$\t270", "HPI_Popula": "\t15 700 436", "HPI_GINI i": "Data unavailable" }, "geometry": { "type": "Point", "coordinates": [ 34.289355987054023, -13.218080880593277 ] } },
{ "type": "Feature", "properties": { "ADMIN": "Madagascar", "NAME_EN": "Madagascar", "HPI_HPI Ra": null, "HPI_Region": null, "HPI_Averag": null, "HPI_Aver_1": null, "HPI_Happy": null, "HPI_Footpr": null, "HPI_Inequa": null, "HPI_Ineq_1": null, "HPI_Ineq_2": null, "HPI_Happ_1": null, "HPI_GDP\/ca": null, "HPI_Popula": null, "HPI_GINI i": null }, "geometry": { "type": "Point", "coordinates": [ 46.704736742828324, -19.371895867650576 ] } },
{ "type": "Feature", "properties": { "ADMIN": "Macedonia", "NAME_EN": "Republic of Macedonia", "HPI_HPI Ra": 90, "HPI_Region": "Post-communist", "HPI_Averag": 75.1, "HPI_Aver_1": 4.6, "HPI_Happy": 27.2, "HPI_Footpr": 3.3, "HPI_Inequa": "18 %", "HPI_Ineq_1": 69.4, "HPI_Ineq_2": 4.1, "HPI_Happ_1": 23.4, "HPI_GDP\/ca": "US$\t4 710", "HPI_Popula": "\t2 069 270", "HPI_GINI i": "Data unavailable" }, "geometry": { "type": "Point", "coordinates": [ 21.682113460705565, 41.595308933620039 ] } },
{ "type": "Feature", "properties": { "ADMIN": "Luxembourg", "NAME_EN": "Luxembourg", "HPI_HPI Ra": 139, "HPI_Region": "Europe", "HPI_Averag": 81.1, "HPI_Aver_1": 7.0, "HPI_Happy": 51.7, "HPI_Footpr": 15.8, "HPI_Inequa": "7 %", "HPI_Ineq_1": 79.0, "HPI_Ineq_2": 6.7, "HPI_Happ_1": 13.2, "HPI_GDP\/ca": "US$\t105 447", "HPI_Popula": "\t530 946", "HPI_GINI i": "34,8" }, "geometry": { "type": "Point", "coordinates": [ 6.071822010663914, 49.767253606814158 ] } },
{ "type": "Feature", "properties": { "ADMIN": "Lithuania", "NAME_EN": "Lithuania", "HPI_HPI Ra": 107, "HPI_Region": "Post-communist", "HPI_Averag": 72.8, "HPI_Aver_1": 5.8, "HPI_Happy": 36.4, "HPI_Footpr": 5.8, "HPI_Inequa": "11 %", "HPI_Ineq_1": 68.8, "HPI_Ineq_2": 5.4, "HPI_Happ_1": 21.0, "HPI_GDP\/ca": "US$\t14 343", "HPI_Popula": "\t2 987 773", "HPI_GINI i": "35,2" }, "geometry": { "type": "Point", "coordinates": [ 23.88719355483239, 55.326109844525554 ] } },
{ "type": "Feature", "properties": { "ADMIN": "Liechtenstein", "NAME_EN": "Liechtenstein", "HPI_HPI Ra": null, "HPI_Region": null, "HPI_Averag": null, "HPI_Aver_1": null, "HPI_Happy": null, "HPI_Footpr": null, "HPI_Inequa": null, "HPI_Ineq_1": null, "HPI_Ineq_2": null, "HPI_Happ_1": null, "HPI_GDP\/ca": null, "HPI_Popula": null, "HPI_GINI i": null }, "geometry": { "type": "Point", "coordinates": [ 9.535743117786923, 47.136658354473667 ] } },
{ "type": "Feature", "properties": { "ADMIN": "Libya", "NAME_EN": "Libya", "HPI_HPI Ra": null, "HPI_Region": null, "HPI_Averag": null, "HPI_Aver_1": null, "HPI_Happy": null, "HPI_Footpr": null, "HPI_Inequa": null, "HPI_Ineq_1": null, "HPI_Ineq_2": null, "HPI_Happ_1": null, "HPI_GDP\/ca": null, "HPI_Popula": null, "HPI_GINI i": null }, "geometry": { "type": "Point", "coordinates": [ 18.008661687167134, 27.030944949138476 ] } },
{ "type": "Feature", "properties": { "ADMIN": "Liberia", "NAME_EN": "Liberia", "HPI_HPI Ra": 96, "HPI_Region": "Sub Saharan Africa", "HPI_Averag": 60.2, "HPI_Aver_1": 4.4, "HPI_Happy": 15.7, "HPI_Footpr": 1.2, "HPI_Inequa": "38 %", "HPI_Ineq_1": 40.3, "HPI_Ineq_2": 4.1, "HPI_Happ_1": 22.2, "HPI_GDP\/ca": "US$\t414", "HPI_Popula": "\t4 190 155", "HPI_GINI i": "Data unavailable" }, "geometry": { "type": "Point", "coordinates": [ -9.322075726897621, 6.452784916574198 ] } },
{ "type": "Feature", "properties": { "ADMIN": "Lesotho", "NAME_EN": "Lesotho", "HPI_HPI Ra": 125, "HPI_Region": "Sub Saharan Africa", "HPI_Averag": 48.9, "HPI_Aver_1": 4.9, "HPI_Happy": 13.4, "HPI_Footpr": 1.7, "HPI_Inequa": "42 %", "HPI_Ineq_1": 32.6, "HPI_Ineq_2": 4.3, "HPI_Happ_1": 16.7, "HPI_GDP\/ca": "US$\t1 159", "HPI_Popula": "\t2 057 331", "HPI_GINI i": "Data unavailable" }, "geometry": { "type": "Point", "coordinates": [ 28.227231309828856, -29.58003188326002 ] } },
{ "type": "Feature", "properties": { "ADMIN": "Lebanon", "NAME_EN": "Lebanon", "HPI_HPI Ra": 100, "HPI_Region": "Middle East and North Africa", "HPI_Averag": 78.8, "HPI_Aver_1": 4.6, "HPI_Happy": 28.2, "HPI_Footpr": 3.8, "HPI_Inequa": "19 %", "HPI_Ineq_1": 73.1, "HPI_Ineq_2": 4.0, "HPI_Happ_1": 21.9, "HPI_GDP\/ca": "US$\t9 729", "HPI_Popula": "\t4 440 728", "HPI_GINI i": "Data unavailable" }, "geometry": { "type": "Point", "coordinates": [ 35.880160714965044, 33.923066305678553 ] } },
{ "type": "Feature", "properties": { "ADMIN": "Latvia", "NAME_EN": "Latvia", "HPI_HPI Ra": 121, "HPI_Region": "Post-communist", "HPI_Averag": 73.6, "HPI_Aver_1": 5.1, "HPI_Happy": 31.2, "HPI_Footpr": 6.3, "HPI_Inequa": "14 %", "HPI_Ineq_1": 68.7, "HPI_Ineq_2": 4.7, "HPI_Happ_1": 17.1, "HPI_GDP\/ca": "US$\t13 775", "HPI_Popula": "\t2 034 319", "HPI_GINI i": "35,5" }, "geometry": { "type": "Point", "coordinates": [ 24.912359833154877, 56.850851626828245 ] } },
{ "type": "Feature", "properties": { "ADMIN": "Laos", "NAME_EN": "Laos", "HPI_HPI Ra": null, "HPI_Region": null, "HPI_Averag": null, "HPI_Aver_1": null, "HPI_Happy": null, "HPI_Footpr": null, "HPI_Inequa": null, "HPI_Ineq_1": null, "HPI_Ineq_2": null, "HPI_Happ_1": null, "HPI_GDP\/ca": null, "HPI_Popula": null, "HPI_GINI i": null }, "geometry": { "type": "Point", "coordinates": [ 103.73772412042679, 18.502174331602848 ] } },
{ "type": "Feature", "properties": { "ADMIN": "Kyrgyzstan", "NAME_EN": "Kyrgyzstan", "HPI_HPI Ra": 31, "HPI_Region": "Post-communist", "HPI_Averag": 69.7, "HPI_Aver_1": 5.2, "HPI_Happy": 28.7, "HPI_Footpr": 1.9, "HPI_Inequa": "18 %", "HPI_Ineq_1": 60.2, "HPI_Ineq_2": 4.9, "HPI_Happ_1": 33.1, "HPI_GDP\/ca": "US$\t1 178", "HPI_Popula": "\t5 607 200", "HPI_GINI i": "27,4" }, "geometry": { "type": "Point", "coordinates": [ 74.541655132856789, 41.462219434552061 ] } },
{ "type": "Feature", "properties": { "ADMIN": "Kuwait", "NAME_EN": "Kuwait", "HPI_HPI Ra": null, "HPI_Region": null, "HPI_Averag": null, "HPI_Aver_1": null, "HPI_Happy": null, "HPI_Footpr": null, "HPI_Inequa": null, "HPI_Ineq_1": null, "HPI_Ineq_2": null, "HPI_Happ_1": null, "HPI_GDP\/ca": null, "HPI_Popula": null, "HPI_GINI i": null }, "geometry": { "type": "Point", "coordinates": [ 47.58700458888368, 29.334312615675369 ] } },
{ "type": "Feature", "properties": { "ADMIN": "Kosovo", "NAME_EN": "Kosovo", "HPI_HPI Ra": null, "HPI_Region": null, "HPI_Averag": null, "HPI_Aver_1": null, "HPI_Happy": null, "HPI_Footpr": null, "HPI_Inequa": null, "HPI_Ineq_1": null, "HPI_Ineq_2": null, "HPI_Happ_1": null, "HPI_GDP\/ca": null, "HPI_Popula": null, "HPI_GINI i": null }, "geometry": { "type": "Point", "coordinates": [ 20.872498113808692, 42.57078706675285 ] } },
{ "type": "Feature", "properties": { "ADMIN": "Kiribati", "NAME_EN": "Kiribati", "HPI_HPI Ra": null, "HPI_Region": null, "HPI_Averag": null, "HPI_Aver_1": null, "HPI_Happy": null, "HPI_Footpr": null, "HPI_Inequa": null, "HPI_Ineq_1": null, "HPI_Ineq_2": null, "HPI_Happ_1": null, "HPI_GDP\/ca": null, "HPI_Popula": null, "HPI_GINI i": null }, "geometry": { "type": "Point", "coordinates": [ -45.611105132878045, 0.860015031658879 ] } },
{ "type": "Feature", "properties": { "ADMIN": "Kenya", "NAME_EN": "Kenya", "HPI_HPI Ra": 83, "HPI_Region": "Sub Saharan Africa", "HPI_Averag": 60.3, "HPI_Aver_1": 4.5, "HPI_Happy": 16.2, "HPI_Footpr": 1.0, "HPI_Inequa": "38 %", "HPI_Ineq_1": 41.0, "HPI_Ineq_2": 4.1, "HPI_Happ_1": 24.2, "HPI_GDP\/ca": "US$\t1 185", "HPI_Popula": "\t42 542 978", "HPI_GINI i": "Data unavailable" }, "geometry": { "type": "Point", "coordinates": [ 37.795939729267637, 0.599880215445471 ] } },
{ "type": "Feature", "properties": { "ADMIN": "Kazakhstan", "NAME_EN": "Kazakhstan", "HPI_HPI Ra": 114, "HPI_Region": "Post-communist", "HPI_Averag": 68.6, "HPI_Aver_1": 5.8, "HPI_Happy": 31.7, "HPI_Footpr": 5.6, "HPI_Inequa": "18 %", "HPI_Ineq_1": 60.7, "HPI_Ineq_2": 5.4, "HPI_Happ_1": 19.1, "HPI_GDP\/ca": "US$\t12 120", "HPI_Popula": "\t16 791 425", "HPI_GINI i": "27,4" }, "geometry": { "type": "Point", "coordinates": [ 67.291493568729592, 48.156880666083445 ] } },
{ "type": "Feature", "properties": { "ADMIN": "Jordan", "NAME_EN": "Jordan", "HPI_HPI Ra": null, "HPI_Region": null, "HPI_Averag": null, "HPI_Aver_1": null, "HPI_Happy": null, "HPI_Footpr": null, "HPI_Inequa": null, "HPI_Ineq_1": null, "HPI_Ineq_2": null, "HPI_Happ_1": null, "HPI_GDP\/ca": null, "HPI_Popula": null, "HPI_GINI i": null }, "geometry": { "type": "Point", "coordinates": [ 36.771361040197505, 31.245790912075417 ] } },
{ "type": "Feature", "properties": { "ADMIN": "Japan", "NAME_EN": "Japan", "HPI_HPI Ra": 58, "HPI_Region": "Asia Pacific", "HPI_Averag": 83.2, "HPI_Aver_1": 6.0, "HPI_Happy": 44.0, "HPI_Footpr": 5.0, "HPI_Inequa": "9 %", "HPI_Ineq_1": 80.6, "HPI_Ineq_2": 5.6, "HPI_Happ_1": 28.3, "HPI_GDP\/ca": "US$\t46 679", "HPI_Popula": "\t127 561 489", "HPI_GINI i": "Data unavailable" }, "geometry": { "type": "Point", "coordinates": [ 138.030895576917374, 37.592301353015543 ] } },
{ "type": "Feature", "properties": { "ADMIN": "Jamaica", "NAME_EN": "Jamaica", "HPI_HPI Ra": 11, "HPI_Region": "Americas", "HPI_Averag": 75.3, "HPI_Aver_1": 5.6, "HPI_Happy": 31.9, "HPI_Footpr": 1.9, "HPI_Inequa": "21 %", "HPI_Ineq_1": 66.3, "HPI_Ineq_2": 5.0, "HPI_Happ_1": 36.9, "HPI_GDP\/ca": "US$\t5 446", "HPI_Popula": "\t2 707 805", "HPI_GINI i": "Data unavailable" }, "geometry": { "type": "Point", "coordinates": [ -77.314825932659687, 18.156948776538879 ] } },
{ "type": "Feature", "properties": { "ADMIN": "Italy", "NAME_EN": "Italy", "HPI_HPI Ra": 60, "HPI_Region": "Europe", "HPI_Averag": 82.7, "HPI_Aver_1": 5.8, "HPI_Happy": 41.1, "HPI_Footpr": 4.6, "HPI_Inequa": "12 %", "HPI_Ineq_1": 80.2, "HPI_Ineq_2": 5.3, "HPI_Happ_1": 28.1, "HPI_GDP\/ca": "US$\t34 844", "HPI_Popula": "\t59 539 717", "HPI_GINI i": "35,2" }, "geometry": { "type": "Point", "coordinates": [ 12.070012547689826, 42.79662848728708 ] } },
{ "type": "Feature", "properties": { "ADMIN": "Israel", "NAME_EN": "Israel", "HPI_HPI Ra": 54, "HPI_Region": "Middle East and North Africa", "HPI_Averag": 81.9, "HPI_Aver_1": 7.1, "HPI_Happy": 52.5, "HPI_Footpr": 6.2, "HPI_Inequa": "8 %", "HPI_Ineq_1": 78.7, "HPI_Ineq_2": 6.8, "HPI_Happ_1": 28.8, "HPI_GDP\/ca": "US$\t32 819", "HPI_Popula": "\t7 910 500", "HPI_GINI i": "Data unavailable" }, "geometry": { "type": "Point", "coordinates": [ 35.00444692771935, 31.46110101184675 ] } },
{ "type": "Feature", "properties": { "ADMIN": "Palestine", "NAME_EN": "Palestine", "HPI_HPI Ra": 22, "HPI_Region": "Middle East and North Africa", "HPI_Averag": 72.6, "HPI_Aver_1": 4.6, "HPI_Happy": 24.5, "HPI_Footpr": 1.2, "HPI_Inequa": "24 %", "HPI_Ineq_1": 62.6, "HPI_Ineq_2": 4.1, "HPI_Happ_1": 34.5, "HPI_GDP\/ca": "US$\t2 783", "HPI_Popula": "\t4 046 901", "HPI_GINI i": "Data unavailable" }, "geometry": { "type": "Point", "coordinates": [ 35.19628705488855, 31.916138926399952 ] } },
{ "type": "Feature", "properties": { "ADMIN": "Ireland", "NAME_EN": "Ireland", "HPI_HPI Ra": 48, "HPI_Region": "Europe", "HPI_Averag": 80.5, "HPI_Aver_1": 7.0, "HPI_Happy": 50.3, "HPI_Footpr": 5.6, "HPI_Inequa": "8 %", "HPI_Ineq_1": 77.5, "HPI_Ineq_2": 6.7, "HPI_Happ_1": 30.0, "HPI_GDP\/ca": "US$\t48 977", "HPI_Popula": "\t4 586 897", "HPI_GINI i": "32,5" }, "geometry": { "type": "Point", "coordinates": [ -8.137935686668518, 53.175448703996636 ] } },
{ "type": "Feature", "properties": { "ADMIN": "Iraq", "NAME_EN": "Iraq", "HPI_HPI Ra": 67, "HPI_Region": "Middle East and North Africa", "HPI_Averag": 69.0, "HPI_Aver_1": 4.7, "HPI_Happy": 22.8, "HPI_Footpr": 1.9, "HPI_Inequa": "27 %", "HPI_Ineq_1": 55.6, "HPI_Ineq_2": 4.3, "HPI_Happ_1": 26.5, "HPI_GDP\/ca": "US$\t6 649", "HPI_Popula": "\t32 780 975", "HPI_GINI i": "29,5" }, "geometry": { "type": "Point", "coordinates": [ 43.743531488781812, 33.03970582315263 ] } },
{ "type": "Feature", "properties": { "ADMIN": "Iran", "NAME_EN": "Iran", "HPI_HPI Ra": 84, "HPI_Region": "Middle East and North Africa", "HPI_Averag": 74.8, "HPI_Aver_1": 4.6, "HPI_Happy": 25.4, "HPI_Footpr": 2.8, "HPI_Inequa": "23 %", "HPI_Ineq_1": 66.9, "HPI_Ineq_2": 4.0, "HPI_Happ_1": 24.0, "HPI_GDP\/ca": "US$\t7 711", "HPI_Popula": "\t76 156 975", "HPI_GINI i": "Data unavailable" }, "geometry": { "type": "Point", "coordinates": [ 54.274070179609446, 32.575032862075695 ] } },
{ "type": "Feature", "properties": { "ADMIN": "Indonesia", "NAME_EN": "Indonesia", "HPI_HPI Ra": 16, "HPI_Region": "Asia Pacific", "HPI_Averag": 68.5, "HPI_Aver_1": 5.4, "HPI_Happy": 28.4, "HPI_Footpr": 1.6, "HPI_Inequa": "21 %", "HPI_Ineq_1": 57.2, "HPI_Ineq_2": 5.1, "HPI_Happ_1": 35.7, "HPI_GDP\/ca": "US$\t3 701", "HPI_Popula": "\t248 037 853", "HPI_GINI i": "Data unavailable" }, "geometry": { "type": "Point", "coordinates": [ 117.240113117841389, -2.215054552382012 ] } },
{ "type": "Feature", "properties": { "ADMIN": "India", "NAME_EN": "India", "HPI_HPI Ra": 50, "HPI_Region": "Asia Pacific", "HPI_Averag": 67.3, "HPI_Aver_1": 4.6, "HPI_Happy": 20.4, "HPI_Footpr": 1.2, "HPI_Inequa": "31 %", "HPI_Ineq_1": 51.1, "HPI_Ineq_2": 4.2, "HPI_Happ_1": 29.2, "HPI_GDP\/ca": "US$\t1 450", "HPI_Popula": "\t1 263 589 639", "HPI_GINI i": "Data unavailable" }, "geometry": { "type": "Point", "coordinates": [ 79.611976094512016, 22.885781980028881 ] } },
{ "type": "Feature", "properties": { "ADMIN": "Iceland", "NAME_EN": "Iceland", "HPI_HPI Ra": 39, "HPI_Region": "Europe", "HPI_Averag": 82.2, "HPI_Aver_1": 7.6, "HPI_Happy": 58.0, "HPI_Footpr": 6.4, "HPI_Inequa": "5 %", "HPI_Ineq_1": 79.8, "HPI_Ineq_2": 7.4, "HPI_Happ_1": 31.1, "HPI_GDP\/ca": "US$\t44 259", "HPI_Popula": "\t320 716", "HPI_GINI i": "26,9" }, "geometry": { "type": "Point", "coordinates": [ -18.573961670805179, 64.995753860673162 ] } },
{ "type": "Feature", "properties": { "ADMIN": "Hungary", "NAME_EN": "Hungary", "HPI_HPI Ra": 69, "HPI_Region": "Post-communist", "HPI_Averag": 74.9, "HPI_Aver_1": 4.7, "HPI_Happy": 28.7, "HPI_Footpr": 2.9, "HPI_Inequa": "15 %", "HPI_Ineq_1": 70.9, "HPI_Ineq_2": 4.2, "HPI_Happ_1": 26.4, "HPI_GDP\/ca": "US$\t12 820", "HPI_Popula": "\t9 920 362", "HPI_GINI i": "30,6" }, "geometry": { "type": "Point", "coordinates": [ 19.395591160671437, 47.162775061446851 ] } },
{ "type": "Feature", "properties": { "ADMIN": "Honduras", "NAME_EN": "Honduras", "HPI_HPI Ra": 65, "HPI_Region": "Americas", "HPI_Averag": 72.8, "HPI_Aver_1": 4.6, "HPI_Happy": 22.1, "HPI_Footpr": 1.7, "HPI_Inequa": "31 %", "HPI_Ineq_1": 58.5, "HPI_Ineq_2": 3.9, "HPI_Happ_1": 27.2, "HPI_GDP\/ca": "US$\t2 395", "HPI_Popula": "\t7 736 131", "HPI_GINI i": "57,4" }, "geometry": { "type": "Point", "coordinates": [ -86.61516609633496, 14.826881651917757 ] } },
{ "type": "Feature", "properties": { "ADMIN": "Haiti", "NAME_EN": "Haiti", "HPI_HPI Ra": 57, "HPI_Region": "Americas", "HPI_Averag": 62.1, "HPI_Aver_1": 4.4, "HPI_Happy": 16.5, "HPI_Footpr": 0.6, "HPI_Inequa": "37 %", "HPI_Ineq_1": 42.9, "HPI_Ineq_2": 4.0, "HPI_Happ_1": 28.6, "HPI_GDP\/ca": "US$\t767", "HPI_Popula": "\t10 288 828", "HPI_GINI i": "60,8" }, "geometry": { "type": "Point", "coordinates": [ -72.685275089853363, 18.935025634308044 ] } },
{ "type": "Feature", "properties": { "ADMIN": "Guyana", "NAME_EN": "Guyana", "HPI_HPI Ra": null, "HPI_Region": null, "HPI_Averag": null, "HPI_Aver_1": null, "HPI_Happy": null, "HPI_Footpr": null, "HPI_Inequa": null, "HPI_Ineq_1": null, "HPI_Ineq_2": null, "HPI_Happ_1": null, "HPI_GDP\/ca": null, "HPI_Popula": null, "HPI_GINI i": null }, "geometry": { "type": "Point", "coordinates": [ -58.982024589305546, 4.793780340123188 ] } },
{ "type": "Feature", "properties": { "ADMIN": "Guinea-Bissau", "NAME_EN": "Guinea-Bissau", "HPI_HPI Ra": null, "HPI_Region": null, "HPI_Averag": null, "HPI_Aver_1": null, "HPI_Happy": null, "HPI_Footpr": null, "HPI_Inequa": null, "HPI_Ineq_1": null, "HPI_Ineq_2": null, "HPI_Happ_1": null, "HPI_GDP\/ca": null, "HPI_Popula": null, "HPI_GINI i": null }, "geometry": { "type": "Point", "coordinates": [ -14.949724445917177, 12.047449481485899 ] } },
{ "type": "Feature", "properties": { "ADMIN": "Guinea", "NAME_EN": "Guinea", "HPI_HPI Ra": 129, "HPI_Region": "Sub Saharan Africa", "HPI_Averag": 57.7, "HPI_Aver_1": 3.7, "HPI_Happy": 11.8, "HPI_Footpr": 1.4, "HPI_Inequa": "42 %", "HPI_Ineq_1": 37.2, "HPI_Ineq_2": 3.3, "HPI_Happ_1": 15.9, "HPI_GDP\/ca": "US$\t487", "HPI_Popula": "\t11 628 767", "HPI_GINI i": "33,7" }, "geometry": { "type": "Point", "coordinates": [ -10.94066611605129, 10.43621593313105 ] } },
{ "type": "Feature", "properties": { "ADMIN": "Guatemala", "NAME_EN": "Guatemala", "HPI_HPI Ra": 26, "HPI_Region": "Americas", "HPI_Averag": 71.4, "HPI_Aver_1": 5.9, "HPI_Happy": 29.6, "HPI_Footpr": 1.9, "HPI_Inequa": "27 %", "HPI_Ineq_1": 59.2, "HPI_Ineq_2": 5.2, "HPI_Happ_1": 34.2, "HPI_GDP\/ca": "US$\t3 279", "HPI_Popula": "\t15 368 759", "HPI_GINI i": "Data unavailable" }, "geometry": { "type": "Point", "coordinates": [ -90.364820085773346, 15.694036634963556 ] } },
{ "type": "Feature", "properties": { "ADMIN": "Grenada", "NAME_EN": "Grenada", "HPI_HPI Ra": null, "HPI_Region": null, "HPI_Averag": null, "HPI_Aver_1": null, "HPI_Happy": null, "HPI_Footpr": null, "HPI_Inequa": null, "HPI_Ineq_1": null, "HPI_Ineq_2": null, "HPI_Happ_1": null, "HPI_GDP\/ca": null, "HPI_Popula": null, "HPI_GINI i": null }, "geometry": { "type": "Point", "coordinates": [ -61.682201888919693, 12.11725043947459 ] } },
{ "type": "Feature", "properties": { "ADMIN": "Greece", "NAME_EN": "Greece", "HPI_HPI Ra": 89, "HPI_Region": "Europe", "HPI_Averag": 80.5, "HPI_Aver_1": 5.1, "HPI_Happy": 33.3, "HPI_Footpr": 4.4, "HPI_Inequa": "16 %", "HPI_Ineq_1": 77.6, "HPI_Ineq_2": 4.5, "HPI_Happ_1": 23.6, "HPI_GDP\/ca": "US$\t22 243", "HPI_Popula": "\t11 045 011", "HPI_GINI i": "36,7" }, "geometry": { "type": "Point", "coordinates": [ 22.955557936914161, 39.074696230695565 ] } },
{ "type": "Feature", "properties": { "ADMIN": "Ghana", "NAME_EN": "Ghana", "HPI_HPI Ra": 104, "HPI_Region": "Sub Saharan Africa", "HPI_Averag": 61.0, "HPI_Aver_1": 5.1, "HPI_Happy": 18.8, "HPI_Footpr": 2.0, "HPI_Inequa": "38 %", "HPI_Ineq_1": 42.2, "HPI_Ineq_2": 4.6, "HPI_Happ_1": 21.4, "HPI_GDP\/ca": "US$\t1 642", "HPI_Popula": "\t25 544 565", "HPI_GINI i": "Data unavailable" }, "geometry": { "type": "Point", "coordinates": [ -1.216765658072907, 7.953456435414082 ] } },
{ "type": "Feature", "properties": { "ADMIN": "Germany", "NAME_EN": "Germany", "HPI_HPI Ra": 49, "HPI_Region": "Europe", "HPI_Averag": 80.6, "HPI_Aver_1": 6.7, "HPI_Happy": 48.2, "HPI_Footpr": 5.3, "HPI_Inequa": "8 %", "HPI_Ineq_1": 77.6, "HPI_Ineq_2": 6.4, "HPI_Happ_1": 29.8, "HPI_GDP\/ca": "US$\t44 011", "HPI_Popula": "\t80 425 823", "HPI_GINI i": "Data unavailable" }, "geometry": { "type": "Point", "coordinates": [ 10.385780507966942, 51.106981807463264 ] } },
{ "type": "Feature", "properties": { "ADMIN": "Georgia", "NAME_EN": "Georgia", "HPI_HPI Ra": 40, "HPI_Region": "Post-communist", "HPI_Averag": 74.6, "HPI_Aver_1": 4.3, "HPI_Happy": 24.7, "HPI_Footpr": 1.6, "HPI_Inequa": "20 %", "HPI_Ineq_1": 66.9, "HPI_Ineq_2": 3.8, "HPI_Happ_1": 31.1, "HPI_GDP\/ca": "US$\t4 143", "HPI_Popula": "\t3 825 000", "HPI_GINI i": "41,4" }, "geometry": { "type": "Point", "coordinates": [ 43.507802520006521, 42.168557553679349 ] } },
{ "type": "Feature", "properties": { "ADMIN": "Gambia", "NAME_EN": "The Gambia", "HPI_HPI Ra": null, "HPI_Region": null, "HPI_Averag": null, "HPI_Aver_1": null, "HPI_Happy": null, "HPI_Footpr": null, "HPI_Inequa": null, "HPI_Ineq_1": null, "HPI_Ineq_2": null, "HPI_Happ_1": null, "HPI_GDP\/ca": null, "HPI_Popula": null, "HPI_GINI i": null }, "geometry": { "type": "Point", "coordinates": [ -15.396012946305509, 13.449652435193672 ] } },
{ "type": "Feature", "properties": { "ADMIN": "Gabon", "NAME_EN": "Gabon", "HPI_HPI Ra": 120, "HPI_Region": "Sub Saharan Africa", "HPI_Averag": 63.3, "HPI_Aver_1": 4.0, "HPI_Happy": 15.4, "HPI_Footpr": 2.0, "HPI_Inequa": "36 %", "HPI_Ineq_1": 45.8, "HPI_Ineq_2": 3.5, "HPI_Happ_1": 17.5, "HPI_GDP\/ca": "US$\t10 642", "HPI_Popula": "\t1 613 489", "HPI_GINI i": "Data unavailable" }, "geometry": { "type": "Point", "coordinates": [ 11.788628696841803, -0.586600249550735 ] } },
{ "type": "Feature", "properties": { "ADMIN": "France", "NAME_EN": "France", "HPI_HPI Ra": 44, "HPI_Region": "Europe", "HPI_Averag": 81.8, "HPI_Aver_1": 6.6, "HPI_Happy": 48.1, "HPI_Footpr": 5.1, "HPI_Inequa": "9 %", "HPI_Ineq_1": 78.5, "HPI_Ineq_2": 6.3, "HPI_Happ_1": 30.4, "HPI_GDP\/ca": "US$\t40 850", "HPI_Popula": "\t65 639 975", "HPI_GINI i": "33,1" }, "geometry": { "type": "Point", "coordinates": [ -2.761729445188525, 42.173440110724222 ] } },
{ "type": "Feature", "properties": { "ADMIN": "Saint Pierre and Miquelon", "NAME_EN": "Saint Pierre and Miquelon", "HPI_HPI Ra": null, "HPI_Region": null, "HPI_Averag": null, "HPI_Aver_1": null, "HPI_Happy": null, "HPI_Footpr": null, "HPI_Inequa": null, "HPI_Ineq_1": null, "HPI_Ineq_2": null, "HPI_Happ_1": null, "HPI_GDP\/ca": null, "HPI_Popula": null, "HPI_GINI i": null }, "geometry": { "type": "Point", "coordinates": [ -56.303197788214497, 46.91918789286143 ] } },
{ "type": "Feature", "properties": { "ADMIN": "Wallis and Futuna", "NAME_EN": "Wallis and Futuna", "HPI_HPI Ra": null, "HPI_Region": null, "HPI_Averag": null, "HPI_Aver_1": null, "HPI_Happy": null, "HPI_Footpr": null, "HPI_Inequa": null, "HPI_Ineq_1": null, "HPI_Ineq_2": null, "HPI_Happ_1": null, "HPI_GDP\/ca": null, "HPI_Popula": null, "HPI_GINI i": null }, "geometry": { "type": "Point", "coordinates": [ -177.348348251405326, -13.887370390337137 ] } },
{ "type": "Feature", "properties": { "ADMIN": "Saint Martin", "NAME_EN": "Saint Martin", "HPI_HPI Ra": null, "HPI_Region": null, "HPI_Averag": null, "HPI_Aver_1": null, "HPI_Happy": null, "HPI_Footpr": null, "HPI_Inequa": null, "HPI_Ineq_1": null, "HPI_Ineq_2": null, "HPI_Happ_1": null, "HPI_GDP\/ca": null, "HPI_Popula": null, "HPI_GINI i": null }, "geometry": { "type": "Point", "coordinates": [ -63.059728514444942, 18.088886109462265 ] } },
{ "type": "Feature", "properties": { "ADMIN": "Saint Barthelemy", "NAME_EN": "Saint-Barthélemy", "HPI_HPI Ra": null, "HPI_Region": null, "HPI_Averag": null, "HPI_Aver_1": null, "HPI_Happy": null, "HPI_Footpr": null, "HPI_Inequa": null, "HPI_Ineq_1": null, "HPI_Ineq_2": null, "HPI_Happ_1": null, "HPI_GDP\/ca": null, "HPI_Popula": null, "HPI_GINI i": null }, "geometry": { "type": "Point", "coordinates": [ -62.840677788420138, 17.898804511167977 ] } },
{ "type": "Feature", "properties": { "ADMIN": "French Polynesia", "NAME_EN": "French Polynesia", "HPI_HPI Ra": null, "HPI_Region": null, "HPI_Averag": null, "HPI_Aver_1": null, "HPI_Happy": null, "HPI_Footpr": null, "HPI_Inequa": null, "HPI_Ineq_1": null, "HPI_Ineq_2": null, "HPI_Happ_1": null, "HPI_GDP\/ca": null, "HPI_Popula": null, "HPI_GINI i": null }, "geometry": { "type": "Point", "coordinates": [ -144.904943869346198, -14.72227408990541 ] } },
{ "type": "Feature", "properties": { "ADMIN": "New Caledonia", "NAME_EN": "New Caledonia", "HPI_HPI Ra": null, "HPI_Region": null, "HPI_Averag": null, "HPI_Aver_1": null, "HPI_Happy": null, "HPI_Footpr": null, "HPI_Inequa": null, "HPI_Ineq_1": null, "HPI_Ineq_2": null, "HPI_Happ_1": null, "HPI_GDP\/ca": null, "HPI_Popula": null, "HPI_GINI i": null }, "geometry": { "type": "Point", "coordinates": [ 165.684923735377538, -21.299918058017809 ] } },
{ "type": "Feature", "properties": { "ADMIN": "French Southern and Antarctic Lands", "NAME_EN": "French Southern and Antarctic Lands", "HPI_HPI Ra": null, "HPI_Region": null, "HPI_Averag": null, "HPI_Aver_1": null, "HPI_Happy": null, "HPI_Footpr": null, "HPI_Inequa": null, "HPI_Ineq_1": null, "HPI_Ineq_2": null, "HPI_Happ_1": null, "HPI_GDP\/ca": null, "HPI_Popula": null, "HPI_GINI i": null }, "geometry": { "type": "Point", "coordinates": [ 69.22666758447906, -49.248954849443905 ] } },
{ "type": "Feature", "properties": { "ADMIN": "Aland", "NAME_EN": "Åland Islands", "HPI_HPI Ra": null, "HPI_Region": null, "HPI_Averag": null, "HPI_Aver_1": null, "HPI_Happy": null, "HPI_Footpr": null, "HPI_Inequa": null, "HPI_Ineq_1": null, "HPI_Ineq_2": null, "HPI_Happ_1": null, "HPI_GDP\/ca": null, "HPI_Popula": null, "HPI_GINI i": null }, "geometry": { "type": "Point", "coordinates": [ 19.953287676037633, 60.214886875577584 ] } },
{ "type": "Feature", "properties": { "ADMIN": "Finland", "NAME_EN": "Finland", "HPI_HPI Ra": 37, "HPI_Region": "Europe", "HPI_Averag": 80.4, "HPI_Aver_1": 7.4, "HPI_Happy": 54.6, "HPI_Footpr": 5.9, "HPI_Inequa": "6 %", "HPI_Ineq_1": 77.6, "HPI_Ineq_2": 7.2, "HPI_Happ_1": 31.3, "HPI_GDP\/ca": "US$\t47 416", "HPI_Popula": "\t5 413 971", "HPI_GINI i": "27,1" }, "geometry": { "type": "Point", "coordinates": [ 26.274665604161953, 64.498846034870454 ] } },
{ "type": "Feature", "properties": { "ADMIN": "Fiji", "NAME_EN": "Fiji", "HPI_HPI Ra": null, "HPI_Region": null, "HPI_Averag": null, "HPI_Aver_1": null, "HPI_Happy": null, "HPI_Footpr": null, "HPI_Inequa": null, "HPI_Ineq_1": null, "HPI_Ineq_2": null, "HPI_Happ_1": null, "HPI_GDP\/ca": null, "HPI_Popula": null, "HPI_GINI i": null }, "geometry": { "type": "Point", "coordinates": [ 165.451954317686216, -17.428580317451367 ] } },
{ "type": "Feature", "properties": { "ADMIN": "Ethiopia", "NAME_EN": "Ethiopia", "HPI_HPI Ra": 66, "HPI_Region": "Sub Saharan Africa", "HPI_Averag": 62.8, "HPI_Aver_1": 4.6, "HPI_Happy": 17.8, "HPI_Footpr": 1.0, "HPI_Inequa": "36 %", "HPI_Ineq_1": 43.8, "HPI_Ineq_2": 4.2, "HPI_Happ_1": 26.7, "HPI_GDP\/ca": "US$\t470", "HPI_Popula": "\t92 191 211", "HPI_GINI i": "Data unavailable" }, "geometry": { "type": "Point", "coordinates": [ 39.600800976322404, 8.622786793100225 ] } },
{ "type": "Feature", "properties": { "ADMIN": "Estonia", "NAME_EN": "Estonia", "HPI_HPI Ra": 118, "HPI_Region": "Post-communist", "HPI_Averag": 76.2, "HPI_Aver_1": 5.4, "HPI_Happy": 35.0, "HPI_Footpr": 6.9, "HPI_Inequa": "12 %", "HPI_Ineq_1": 72.6, "HPI_Ineq_2": 5.0, "HPI_Happ_1": 17.9, "HPI_GDP\/ca": "US$\t17 491", "HPI_Popula": "\t1 322 696", "HPI_GINI i": "33,2" }, "geometry": { "type": "Point", "coordinates": [ 25.542485365632967, 58.671929717321014 ] } },
{ "type": "Feature", "properties": { "ADMIN": "Eritrea", "NAME_EN": "Eritrea", "HPI_HPI Ra": null, "HPI_Region": null, "HPI_Averag": null, "HPI_Aver_1": null, "HPI_Happy": null, "HPI_Footpr": null, "HPI_Inequa": null, "HPI_Ineq_1": null, "HPI_Ineq_2": null, "HPI_Happ_1": null, "HPI_GDP\/ca": null, "HPI_Popula": null, "HPI_GINI i": null }, "geometry": { "type": "Point", "coordinates": [ 38.846170112459035, 15.361866184011726 ] } },
{ "type": "Feature", "properties": { "ADMIN": "Equatorial Guinea", "NAME_EN": "Equatorial Guinea", "HPI_HPI Ra": null, "HPI_Region": null, "HPI_Averag": null, "HPI_Aver_1": null, "HPI_Happy": null, "HPI_Footpr": null, "HPI_Inequa": null, "HPI_Ineq_1": null, "HPI_Ineq_2": null, "HPI_Happ_1": null, "HPI_GDP\/ca": null, "HPI_Popula": null, "HPI_GINI i": null }, "geometry": { "type": "Point", "coordinates": [ 10.34137923885036, 1.705551354642797 ] } },
{ "type": "Feature", "properties": { "ADMIN": "El Salvador", "NAME_EN": "El Salvador", "HPI_HPI Ra": 17, "HPI_Region": "Americas", "HPI_Averag": 72.5, "HPI_Aver_1": 5.9, "HPI_Happy": 32.2, "HPI_Footpr": 2.1, "HPI_Inequa": "22 %", "HPI_Ineq_1": 62.5, "HPI_Ineq_2": 5.3, "HPI_Happ_1": 35.6, "HPI_GDP\/ca": "US$\t3 922", "HPI_Popula": "\t6 072 233", "HPI_GINI i": "41,8" }, "geometry": { "type": "Point", "coordinates": [ -88.871644690621252, 13.739437438277044 ] } },
{ "type": "Feature", "properties": { "ADMIN": "Egypt", "NAME_EN": "Egypt", "HPI_HPI Ra": 86, "HPI_Region": "Middle East and North Africa", "HPI_Averag": 70.7, "HPI_Aver_1": 4.2, "HPI_Happy": 21.8, "HPI_Footpr": 2.2, "HPI_Inequa": "23 %", "HPI_Ineq_1": 61.3, "HPI_Ineq_2": 3.7, "HPI_Happ_1": 23.8, "HPI_GDP\/ca": "US$\t3 226", "HPI_Popula": "\t85 660 902", "HPI_GINI i": "Data unavailable" }, "geometry": { "type": "Point", "coordinates": [ 29.861900990834684, 26.495933106400241 ] } },
{ "type": "Feature", "properties": { "ADMIN": "Ecuador", "NAME_EN": "Ecuador", "HPI_HPI Ra": 10, "HPI_Region": "Americas", "HPI_Averag": 75.4, "HPI_Aver_1": 6.0, "HPI_Happy": 34.3, "HPI_Footpr": 2.2, "HPI_Inequa": "22 %", "HPI_Ineq_1": 64.1, "HPI_Ineq_2": 5.5, "HPI_Happ_1": 37.0, "HPI_GDP\/ca": "US$\t5 702", "HPI_Popula": "\t15 419 493", "HPI_GINI i": "46,6" }, "geometry": { "type": "Point", "coordinates": [ -78.752019224989368, -1.42381612487738 ] } },
{ "type": "Feature", "properties": { "ADMIN": "Dominican Republic", "NAME_EN": "Dominican Republic", "HPI_HPI Ra": 45, "HPI_Region": "Americas", "HPI_Averag": 73.1, "HPI_Aver_1": 4.8, "HPI_Happy": 23.7, "HPI_Footpr": 1.5, "HPI_Inequa": "30 %", "HPI_Ineq_1": 60.8, "HPI_Ineq_2": 4.1, "HPI_Happ_1": 30.3, "HPI_GDP\/ca": "US$\t5 967", "HPI_Popula": "\t10 155 036", "HPI_GINI i": "45,7" }, "geometry": { "type": "Point", "coordinates": [ -70.505688961212911, 18.894330823339551 ] } },
{ "type": "Feature", "properties": { "ADMIN": "Dominica", "NAME_EN": "Dominica", "HPI_HPI Ra": null, "HPI_Region": null, "HPI_Averag": null, "HPI_Aver_1": null, "HPI_Happy": null, "HPI_Footpr": null, "HPI_Inequa": null, "HPI_Ineq_1": null, "HPI_Ineq_2": null, "HPI_Happ_1": null, "HPI_GDP\/ca": null, "HPI_Popula": null, "HPI_GINI i": null }, "geometry": { "type": "Point", "coordinates": [ -61.35772599871661, 15.439470202865929 ] } },
{ "type": "Feature", "properties": { "ADMIN": "Djibouti", "NAME_EN": "Djibouti", "HPI_HPI Ra": 127, "HPI_Region": "Sub Saharan Africa", "HPI_Averag": 61.3, "HPI_Aver_1": 4.4, "HPI_Happy": 15.1, "HPI_Footpr": 2.2, "HPI_Inequa": "42 %", "HPI_Ineq_1": 41.4, "HPI_Ineq_2": 3.8, "HPI_Happ_1": 16.4, "HPI_GDP\/ca": "US$\t1 587", "HPI_Popula": "\t853 069", "HPI_GINI i": "45,1" }, "geometry": { "type": "Point", "coordinates": [ 42.560675402639248, 11.748718055878159 ] } },
{ "type": "Feature", "properties": { "ADMIN": "Greenland", "NAME_EN": "Greenland", "HPI_HPI Ra": null, "HPI_Region": null, "HPI_Averag": null, "HPI_Aver_1": null, "HPI_Happy": null, "HPI_Footpr": null, "HPI_Inequa": null, "HPI_Ineq_1": null, "HPI_Ineq_2": null, "HPI_Happ_1": null, "HPI_GDP\/ca": null, "HPI_Popula": null, "HPI_GINI i": null }, "geometry": { "type": "Point", "coordinates": [ -41.341911269993531, 74.710512886422009 ] } },
{ "type": "Feature", "properties": { "ADMIN": "Faroe Islands", "NAME_EN": "Faroe Islands", "HPI_HPI Ra": null, "HPI_Region": null, "HPI_Averag": null, "HPI_Aver_1": null, "HPI_Happy": null, "HPI_Footpr": null, "HPI_Inequa": null, "HPI_Ineq_1": null, "HPI_Ineq_2": null, "HPI_Happ_1": null, "HPI_GDP\/ca": null, "HPI_Popula": null, "HPI_GINI i": null }, "geometry": { "type": "Point", "coordinates": [ -6.880954234256304, 62.053854032146013 ] } },
{ "type": "Feature", "properties": { "ADMIN": "Denmark", "NAME_EN": "Denmark", "HPI_HPI Ra": 32, "HPI_Region": "Europe", "HPI_Averag": 79.8, "HPI_Aver_1": 7.5, "HPI_Happy": 54.4, "HPI_Footpr": 5.5, "HPI_Inequa": "7 %", "HPI_Ineq_1": 76.8, "HPI_Ineq_2": 7.2, "HPI_Happ_1": 32.7, "HPI_GDP\/ca": "US$\t57 636", "HPI_Popula": "\t5 591 572", "HPI_GINI i": "29,1" }, "geometry": { "type": "Point", "coordinates": [ 10.028009919085951, 55.981252959290799 ] } },
{ "type": "Feature", "properties": { "ADMIN": "Czechia", "NAME_EN": "Czech Republic", "HPI_HPI Ra": null, "HPI_Region": null, "HPI_Averag": null, "HPI_Aver_1": null, "HPI_Happy": null, "HPI_Footpr": null, "HPI_Inequa": null, "HPI_Ineq_1": null, "HPI_Ineq_2": null, "HPI_Happ_1": null, "HPI_GDP\/ca": null, "HPI_Popula": null, "HPI_GINI i": null }, "geometry": { "type": "Point", "coordinates": [ 15.31240162809943, 49.733412329487386 ] } },
{ "type": "Feature", "properties": { "ADMIN": "Northern Cyprus", "NAME_EN": "Turkish Republic of Northern Cyprus", "HPI_HPI Ra": null, "HPI_Region": null, "HPI_Averag": null, "HPI_Aver_1": null, "HPI_Happy": null, "HPI_Footpr": null, "HPI_Inequa": null, "HPI_Ineq_1": null, "HPI_Ineq_2": null, "HPI_Happ_1": null, "HPI_GDP\/ca": null, "HPI_Popula": null, "HPI_GINI i": null }, "geometry": { "type": "Point", "coordinates": [ 33.568481297355774, 35.26277485618732 ] } },
{ "type": "Feature", "properties": { "ADMIN": "Cyprus", "NAME_EN": "Cyprus", "HPI_HPI Ra": 41, "HPI_Region": "Europe", "HPI_Averag": 79.8, "HPI_Aver_1": 6.2, "HPI_Happy": 42.3, "HPI_Footpr": 4.2, "HPI_Inequa": "12 %", "HPI_Ineq_1": 76.6, "HPI_Ineq_2": 5.7, "HPI_Happ_1": 30.7, "HPI_GDP\/ca": "US$\t28 868", "HPI_Popula": "\t1 129 303", "HPI_GINI i": "34,3" }, "geometry": { "type": "Point", "coordinates": [ 33.006002195710458, 34.916672112010936 ] } },
{ "type": "Feature", "properties": { "ADMIN": "Cuba", "NAME_EN": "Cuba", "HPI_HPI Ra": null, "HPI_Region": null, "HPI_Averag": null, "HPI_Aver_1": null, "HPI_Happy": null, "HPI_Footpr": null, "HPI_Inequa": null, "HPI_Ineq_1": null, "HPI_Ineq_2": null, "HPI_Happ_1": null, "HPI_GDP\/ca": null, "HPI_Popula": null, "HPI_GINI i": null }, "geometry": { "type": "Point", "coordinates": [ -79.016053844462888, 21.622895279311305 ] } },
{ "type": "Feature", "properties": { "ADMIN": "Croatia", "NAME_EN": "Croatia", "HPI_HPI Ra": 47, "HPI_Region": "Post-communist", "HPI_Averag": 77.0, "HPI_Aver_1": 6.0, "HPI_Happy": 39.6, "HPI_Footpr": 3.9, "HPI_Inequa": "12 %", "HPI_Ineq_1": 73.5, "HPI_Ineq_2": 5.5, "HPI_Happ_1": 30.2, "HPI_GDP\/ca": "US$\t13 236", "HPI_Popula": "\t4 267 558", "HPI_GINI i": "Data unavailable" }, "geometry": { "type": "Point", "coordinates": [ 16.404128993951598, 45.080476305706526 ] } },
{ "type": "Feature", "properties": { "ADMIN": "Ivory Coast", "NAME_EN": "Ivory Coast", "HPI_HPI Ra": null, "HPI_Region": null, "HPI_Averag": null, "HPI_Aver_1": null, "HPI_Happy": null, "HPI_Footpr": null, "HPI_Inequa": null, "HPI_Ineq_1": null, "HPI_Ineq_2": null, "HPI_Happ_1": null, "HPI_GDP\/ca": null, "HPI_Popula": null, "HPI_GINI i": null }, "geometry": { "type": "Point", "coordinates": [ -5.569215699797335, 7.628426202354192 ] } },
{ "type": "Feature", "properties": { "ADMIN": "Costa Rica", "NAME_EN": "Costa Rica", "HPI_HPI Ra": 1, "HPI_Region": "Americas", "HPI_Averag": 79.1, "HPI_Aver_1": 7.3, "HPI_Happy": 48.2, "HPI_Footpr": 2.8, "HPI_Inequa": "15 %", "HPI_Ineq_1": 72.6, "HPI_Ineq_2": 6.8, "HPI_Happ_1": 44.7, "HPI_GDP\/ca": "US$\t9 733", "HPI_Popula": "\t4 654 148", "HPI_GINI i": "48,6" }, "geometry": { "type": "Point", "coordinates": [ -84.192087677536193, 9.976344638396988 ] } },
{ "type": "Feature", "properties": { "ADMIN": "Democratic Republic of the Congo", "NAME_EN": "Democratic Republic of the Congo", "HPI_HPI Ra": null, "HPI_Region": null, "HPI_Averag": null, "HPI_Aver_1": null, "HPI_Happy": null, "HPI_Footpr": null, "HPI_Inequa": null, "HPI_Ineq_1": null, "HPI_Ineq_2": null, "HPI_Happ_1": null, "HPI_GDP\/ca": null, "HPI_Popula": null, "HPI_GINI i": null }, "geometry": { "type": "Point", "coordinates": [ 23.643961066039431, -2.877462889699738 ] } },
{ "type": "Feature", "properties": { "ADMIN": "Republic of the Congo", "NAME_EN": "Republic of the Congo", "HPI_HPI Ra": null, "HPI_Region": null, "HPI_Averag": null, "HPI_Aver_1": null, "HPI_Happy": null, "HPI_Footpr": null, "HPI_Inequa": null, "HPI_Ineq_1": null, "HPI_Ineq_2": null, "HPI_Happ_1": null, "HPI_GDP\/ca": null, "HPI_Popula": null, "HPI_GINI i": null }, "geometry": { "type": "Point", "coordinates": [ 15.219657619515935, -0.83787463118366 ] } },
{ "type": "Feature", "properties": { "ADMIN": "Comoros", "NAME_EN": "Comoros", "HPI_HPI Ra": 93, "HPI_Region": "Sub Saharan Africa", "HPI_Averag": 62.6, "HPI_Aver_1": 4.0, "HPI_Happy": 15.4, "HPI_Footpr": 1.0, "HPI_Inequa": "36 %", "HPI_Ineq_1": 43.3, "HPI_Ineq_2": 3.7, "HPI_Happ_1": 23.1, "HPI_GDP\/ca": "US$\t750", "HPI_Popula": "\t733 661", "HPI_GINI i": "Data unavailable" }, "geometry": { "type": "Point", "coordinates": [ 43.682539684767789, -11.877834435528058 ] } },
{ "type": "Feature", "properties": { "ADMIN": "Colombia", "NAME_EN": "Colombia", "HPI_HPI Ra": 3, "HPI_Region": "Americas", "HPI_Averag": 73.7, "HPI_Aver_1": 6.4, "HPI_Happy": 35.1, "HPI_Footpr": 1.9, "HPI_Inequa": "24 %", "HPI_Ineq_1": 63.1, "HPI_Ineq_2": 5.7, "HPI_Happ_1": 40.7, "HPI_GDP\/ca": "US$\t7 885", "HPI_Popula": "\t46 881 018", "HPI_GINI i": "53,5" }, "geometry": { "type": "Point", "coordinates": [ -73.081145824092843, 3.913834307250324 ] } },
{ "type": "Feature", "properties": { "ADMIN": "China", "NAME_EN": "People's Republic of China", "HPI_HPI Ra": 72, "HPI_Region": "Asia Pacific", "HPI_Averag": 75.4, "HPI_Aver_1": 5.1, "HPI_Happy": 30.6, "HPI_Footpr": 3.4, "HPI_Inequa": "17 %", "HPI_Ineq_1": 68.6, "HPI_Ineq_2": 4.6, "HPI_Happ_1": 25.7, "HPI_GDP\/ca": "US$\t6 265", "HPI_Popula": "\t1 350 695 000", "HPI_GINI i": "Data unavailable" }, "geometry": { "type": "Point", "coordinates": [ 103.81907314582385, 36.561765379252698 ] } },
{ "type": "Feature", "properties": { "ADMIN": "Macao S.A.R", "NAME_EN": "Macau", "HPI_HPI Ra": null, "HPI_Region": null, "HPI_Averag": null, "HPI_Aver_1": null, "HPI_Happy": null, "HPI_Footpr": null, "HPI_Inequa": null, "HPI_Ineq_1": null, "HPI_Ineq_2": null, "HPI_Happ_1": null, "HPI_GDP\/ca": null, "HPI_Popula": null, "HPI_GINI i": null }, "geometry": { "type": "Point", "coordinates": [ 113.509321161964564, 22.22311688354467 ] } },
{ "type": "Feature", "properties": { "ADMIN": "Hong Kong S.A.R.", "NAME_EN": "Hong Kong", "HPI_HPI Ra": null, "HPI_Region": null, "HPI_Averag": null, "HPI_Aver_1": null, "HPI_Happy": null, "HPI_Footpr": null, "HPI_Inequa": null, "HPI_Ineq_1": null, "HPI_Ineq_2": null, "HPI_Happ_1": null, "HPI_GDP\/ca": null, "HPI_Popula": null, "HPI_GINI i": null }, "geometry": { "type": "Point", "coordinates": [ 114.113804541764523, 22.398277372298391 ] } },
{ "type": "Feature", "properties": { "ADMIN": "Chile", "NAME_EN": "Chile", "HPI_HPI Ra": 35, "HPI_Region": "Americas", "HPI_Averag": 81.1, "HPI_Aver_1": 6.6, "HPI_Happy": 44.7, "HPI_Footpr": 4.4, "HPI_Inequa": "14 %", "HPI_Ineq_1": 74.9, "HPI_Ineq_2": 6.1, "HPI_Happ_1": 31.7, "HPI_GDP\/ca": "US$\t15 253", "HPI_Popula": "\t17 388 437", "HPI_GINI i": "Data unavailable" }, "geometry": { "type": "Point", "coordinates": [ -71.382562131778968, -37.730709893034799 ] } },
{ "type": "Feature", "properties": { "ADMIN": "Chad", "NAME_EN": "Chad", "HPI_HPI Ra": 140, "HPI_Region": "Sub Saharan Africa", "HPI_Averag": 50.8, "HPI_Aver_1": 4.0, "HPI_Happy": 9.6, "HPI_Footpr": 1.5, "HPI_Inequa": "51 %", "HPI_Ineq_1": 27.3, "HPI_Ineq_2": 3.7, "HPI_Happ_1": 12.8, "HPI_GDP\/ca": "US$\t973", "HPI_Popula": "\t12 715 465", "HPI_GINI i": "Data unavailable" }, "geometry": { "type": "Point", "coordinates": [ 18.644925129091273, 15.333337584982477 ] } },
{ "type": "Feature", "properties": { "ADMIN": "Central African Republic", "NAME_EN": "Central African Republic", "HPI_HPI Ra": null, "HPI_Region": null, "HPI_Averag": null, "HPI_Aver_1": null, "HPI_Happy": null, "HPI_Footpr": null, "HPI_Inequa": null, "HPI_Ineq_1": null, "HPI_Ineq_2": null, "HPI_Happ_1": null, "HPI_GDP\/ca": null, "HPI_Popula": null, "HPI_GINI i": null }, "geometry": { "type": "Point", "coordinates": [ 20.468268309752077, 6.568232970478146 ] } },
{ "type": "Feature", "properties": { "ADMIN": "Cabo Verde", "NAME_EN": "Cape Verde", "HPI_HPI Ra": null, "HPI_Region": null, "HPI_Averag": null, "HPI_Aver_1": null, "HPI_Happy": null, "HPI_Footpr": null, "HPI_Inequa": null, "HPI_Ineq_1": null, "HPI_Ineq_2": null, "HPI_Happ_1": null, "HPI_GDP\/ca": null, "HPI_Popula": null, "HPI_GINI i": null }, "geometry": { "type": "Point", "coordinates": [ -23.959888202551785, 15.955233242141452 ] } },
{ "type": "Feature", "properties": { "ADMIN": "Canada", "NAME_EN": "Canada", "HPI_HPI Ra": 85, "HPI_Region": "Americas", "HPI_Averag": 81.7, "HPI_Aver_1": 7.4, "HPI_Happy": 53.9, "HPI_Footpr": 8.2, "HPI_Inequa": "9 %", "HPI_Ineq_1": 77.8, "HPI_Ineq_2": 7.1, "HPI_Happ_1": 23.9, "HPI_GDP\/ca": "US$\t52 738", "HPI_Popula": "\t34 751 476", "HPI_GINI i": "Data unavailable" }, "geometry": { "type": "Point", "coordinates": [ -109.751995834374597, 58.593298997127626 ] } },
{ "type": "Feature", "properties": { "ADMIN": "Cameroon", "NAME_EN": "Cameroon", "HPI_HPI Ra": 124, "HPI_Region": "Sub Saharan Africa", "HPI_Averag": 54.6, "HPI_Aver_1": 4.2, "HPI_Happy": 11.6, "HPI_Footpr": 1.2, "HPI_Inequa": "47 %", "HPI_Ineq_1": 33.1, "HPI_Ineq_2": 3.7, "HPI_Happ_1": 16.7, "HPI_GDP\/ca": "US$\t1 222", "HPI_Popula": "\t21 659 488", "HPI_GINI i": "Data unavailable" }, "geometry": { "type": "Point", "coordinates": [ 12.739641557537317, 5.691098489858633 ] } },
{ "type": "Feature", "properties": { "ADMIN": "Cambodia", "NAME_EN": "Cambodia", "HPI_HPI Ra": 74, "HPI_Region": "Asia Pacific", "HPI_Averag": 67.5, "HPI_Aver_1": 3.9, "HPI_Happy": 18.2, "HPI_Footpr": 1.2, "HPI_Inequa": "28 %", "HPI_Ineq_1": 54.2, "HPI_Ineq_2": 3.5, "HPI_Happ_1": 25.6, "HPI_GDP\/ca": "US$\t946", "HPI_Popula": "\t14 832 255", "HPI_GINI i": "30,8" }, "geometry": { "type": "Point", "coordinates": [ 104.906943249431421, 12.720047856651123 ] } },
{ "type": "Feature", "properties": { "ADMIN": "Myanmar", "NAME_EN": "Myanmar", "HPI_HPI Ra": 81, "HPI_Region": "Asia Pacific", "HPI_Averag": 65.5, "HPI_Aver_1": 4.4, "HPI_Happy": 18.8, "HPI_Footpr": 1.4, "HPI_Inequa": "32 %", "HPI_Ineq_1": 48.4, "HPI_Ineq_2": 4.0, "HPI_Happ_1": 24.7, "HPI_GDP\/ca": "US$\t1 421", "HPI_Popula": "\t52 543 841", "HPI_GINI i": "Data unavailable" }, "geometry": { "type": "Point", "coordinates": [ 96.48843321041798, 21.185665992690303 ] } },
{ "type": "Feature", "properties": { "ADMIN": "Burundi", "NAME_EN": "Burundi", "HPI_HPI Ra": 131, "HPI_Region": "Sub Saharan Africa", "HPI_Averag": 55.8, "HPI_Aver_1": 3.4, "HPI_Happy": 9.5, "HPI_Footpr": 0.8, "HPI_Inequa": "48 %", "HPI_Ineq_1": 33.0, "HPI_Ineq_2": 3.0, "HPI_Happ_1": 15.6, "HPI_GDP\/ca": "US$\t244", "HPI_Popula": "\t10 124 572", "HPI_GINI i": "Data unavailable" }, "geometry": { "type": "Point", "coordinates": [ 29.875121564464436, -3.35939665747007 ] } },
{ "type": "Feature", "properties": { "ADMIN": "Burkina Faso", "NAME_EN": "Burkina Faso", "HPI_HPI Ra": 119, "HPI_Region": "Sub Saharan Africa", "HPI_Averag": 58.0, "HPI_Aver_1": 4.0, "HPI_Happy": 12.6, "HPI_Footpr": 1.2, "HPI_Inequa": "43 %", "HPI_Ineq_1": 36.5, "HPI_Ineq_2": 3.6, "HPI_Happ_1": 17.9, "HPI_GDP\/ca": "US$\t673", "HPI_Popula": "\t16 590 813", "HPI_GINI i": "Data unavailable" }, "geometry": { "type": "Point", "coordinates": [ -1.754566009144365, 12.269538457425355 ] } },
{ "type": "Feature", "properties": { "ADMIN": "Bulgaria", "NAME_EN": "Bulgaria", "HPI_HPI Ra": 109, "HPI_Region": "Post-communist", "HPI_Averag": 73.9, "HPI_Aver_1": 4.2, "HPI_Happy": 24.0, "HPI_Footpr": 3.3, "HPI_Inequa": "19 %", "HPI_Ineq_1": 68.1, "HPI_Ineq_2": 3.7, "HPI_Happ_1": 20.4, "HPI_GDP\/ca": "US$\t7 333", "HPI_Popula": "\t7 305 888", "HPI_GINI i": "36,0" }, "geometry": { "type": "Point", "coordinates": [ 25.215529086323333, 42.768903179715792 ] } },
{ "type": "Feature", "properties": { "ADMIN": "Brunei", "NAME_EN": "Brunei", "HPI_HPI Ra": null, "HPI_Region": null, "HPI_Averag": null, "HPI_Aver_1": null, "HPI_Happy": null, "HPI_Footpr": null, "HPI_Inequa": null, "HPI_Ineq_1": null, "HPI_Ineq_2": null, "HPI_Happ_1": null, "HPI_GDP\/ca": null, "HPI_Popula": null, "HPI_GINI i": null }, "geometry": { "type": "Point", "coordinates": [ 114.722030353813452, 4.519689575027988 ] } },
{ "type": "Feature", "properties": { "ADMIN": "Brazil", "NAME_EN": "Brazil", "HPI_HPI Ra": 23, "HPI_Region": "Americas", "HPI_Averag": 73.9, "HPI_Aver_1": 6.9, "HPI_Happy": 39.0, "HPI_Footpr": 3.1, "HPI_Inequa": "22 %", "HPI_Ineq_1": 63.3, "HPI_Ineq_2": 6.3, "HPI_Happ_1": 34.3, "HPI_GDP\/ca": "US$\t12 157", "HPI_Popula": "\t202 401 584", "HPI_GINI i": "52,7" }, "geometry": { "type": "Point", "coordinates": [ -53.097831126691233, -10.78777702460517 ] } },
{ "type": "Feature", "properties": { "ADMIN": "Botswana", "NAME_EN": "Botswana", "HPI_HPI Ra": 126, "HPI_Region": "Sub Saharan Africa", "HPI_Averag": 64.2, "HPI_Aver_1": 4.8, "HPI_Happy": 21.3, "HPI_Footpr": 3.8, "HPI_Inequa": "28 %", "HPI_Ineq_1": 50.8, "HPI_Ineq_2": 4.3, "HPI_Happ_1": 16.6, "HPI_GDP\/ca": "US$\t6 936", "HPI_Popula": "\t2 132 822", "HPI_GINI i": "Data unavailable" }, "geometry": { "type": "Point", "coordinates": [ 23.798533677294007, -22.184032132843235 ] } },
{ "type": "Feature", "properties": { "ADMIN": "Bosnia and Herzegovina", "NAME_EN": "Bosnia and Herzegovina", "HPI_HPI Ra": 76, "HPI_Region": "Post-communist", "HPI_Averag": 76.2, "HPI_Aver_1": 4.8, "HPI_Happy": 28.6, "HPI_Footpr": 3.1, "HPI_Inequa": "19 %", "HPI_Ineq_1": 71.1, "HPI_Ineq_2": 4.2, "HPI_Happ_1": 25.3, "HPI_GDP\/ca": "US$\t4 495", "HPI_Popula": "\t3 828 419", "HPI_GINI i": "Data unavailable" }, "geometry": { "type": "Point", "coordinates": [ 17.768767332301927, 44.174501247221073 ] } },
{ "type": "Feature", "properties": { "ADMIN": "Bolivia", "NAME_EN": "Bolivia", "HPI_HPI Ra": 92, "HPI_Region": "Americas", "HPI_Averag": 67.5, "HPI_Aver_1": 6.0, "HPI_Happy": 25.6, "HPI_Footpr": 3.0, "HPI_Inequa": "35 %", "HPI_Ineq_1": 47.9, "HPI_Ineq_2": 5.5, "HPI_Happ_1": 23.3, "HPI_GDP\/ca": "US$\t2 645", "HPI_Popula": "\t10 238 762", "HPI_GINI i": "46,7" }, "geometry": { "type": "Point", "coordinates": [ -64.685386451464979, -16.708147872501669 ] } },
{ "type": "Feature", "properties": { "ADMIN": "Bhutan", "NAME_EN": "Bhutan", "HPI_HPI Ra": 56, "HPI_Region": "Asia Pacific", "HPI_Averag": 68.7, "HPI_Aver_1": 5.6, "HPI_Happy": 27.4, "HPI_Footpr": 2.3, "HPI_Inequa": "27 %", "HPI_Ineq_1": 54.5, "HPI_Ineq_2": 5.2, "HPI_Happ_1": 28.6, "HPI_GDP\/ca": "US$\t2 452", "HPI_Popula": "\t743 711", "HPI_GINI i": "38,7" }, "geometry": { "type": "Point", "coordinates": [ 90.401881552541383, 27.411065885780403 ] } },
{ "type": "Feature", "properties": { "ADMIN": "Benin", "NAME_EN": "Benin", "HPI_HPI Ra": 137, "HPI_Region": "Sub Saharan Africa", "HPI_Averag": 59.2, "HPI_Aver_1": 3.2, "HPI_Happy": 9.9, "HPI_Footpr": 1.4, "HPI_Inequa": "44 %", "HPI_Ineq_1": 37.3, "HPI_Ineq_2": 2.8, "HPI_Happ_1": 13.4, "HPI_GDP\/ca": "US$\t808", "HPI_Popula": "\t10 049 792", "HPI_GINI i": "Data unavailable" }, "geometry": { "type": "Point", "coordinates": [ 2.327852544487661, 9.641759702254502 ] } },